street,count,year,directorate,lat,lng,features
ADELHEIDALLEE / AN DER MÜHLE / GABRIELENSTR.,1,2015,11,13.2786544,52.5940403,4796341-4796467-19793804
ALT-HEILIGENSEE,1,2015,11,13.2125310214956,52.606811173843,5046518
ALT-TEGEL / MEDEBACHER WEG,1,2015,11,13.277237798156001,52.5890551803616,4796508-4796786
AM BÄRENSPRUNG,1,2015,11,13.2449400738937,52.610261380144,21278814
AM DACHSBAU / HELMKRAUTSTR.,1,2015,11,13.2335303,52.6163995,5046979-5047016
AM DACHSBAU / RUPPINER CHAUSSEE,1,2015,11,13.2358602,52.6211396,4795846-5046979
AM DACHSBAU / WILDGANSSTEIG,1,2015,11,13.230738,52.6093174,5046979-5046985
AM NORDGRABEN,1,2015,11,13.3290692272817,52.5874612659903,4678210
AM NORDGRABEN / EICHBORNDAMM,3,2015,11,13.3240508,52.5875773,4678199-4678210
AM TEGELER HAFEN,1,2015,11,13.2783149345904,52.589858573794,4796472
AN DER MÜHLE / KAROLINENSTR. / WAIDMANNSLUSTER DAMM / FLIEßBRÜCKE,2,2015,11,13.280874650000001,52.5937785,4540101-4645180-4796341
ANTONIENSTR.,1,2015,11,13.3126833531434,52.5736476684557,4537077
ANTONIENSTR. / WITTESTR.,1,2015,11,13.3141432,52.5767033,4537077-4589063
AROSER ALLEE,2,2015,11,13.3519484642675,52.5663487806684,4581788
AROSER ALLEE / GRINDELWALDWEG,1,2015,11,13.3528887,52.5643775,4581788-4638305
AROSER ALLEE / HOLLÄNDERSTR.,1,2015,11,13.3539599,52.5620932,4581788-4610047
AROSER ALLEE / LINDAUER ALLEE,2,2015,11,13.352008099999999,52.5737367,4067951-4581788
AUGUSTE-VIKTORIA-ALLEE,4,2015,11,13.3188971639306,52.5706204885626,12305946
AUGUSTE-VIKTORIA-ALLEE / SCHILLINGSTR.,1,2015,11,13.3219025,52.5702078,4537080-12305946
BÄRBELWEG,1,2015,11,13.2204983451347,52.5768967279448,142161320
BELOWSTR. / VON-DER-GABLENTZ-STR.,1,2015,11,13.3256166,52.5658223,4675154-10737928
BERENHORSTSTR. / ZOBELTITZSTR.,1,2015,11,13.3244403,52.5679264,8873639-11263882
BERLINER STR.,8,2015,11,13.2885915256673,52.5840254186982,4588911
BERLINER STR. / BIEDENKOPFER STR.,1,2015,11,13.2918459,52.5799593,4588911-4796788
BERLINER STR. / BRUNOWSTR.,2,2015,11,13.2854716,52.5877641,4588911-4796510
BERLINER STR. / EGELLSSTR. / WITTESTR.,2,2015,11,13.2912186,52.5810225,4588911-4589063-4796780
BERLINER STR. / ERNSTSTR. / AM BORSIGTURM,1,2015,11,13.2900057,52.5825572,4588911-4645235-4796771
BERLINER STR. / NAMSLAUSTR.,1,2015,11,13.2931002,52.5787015,4588911-4796801
BERLINER STR. / VEITSTR.,1,2015,11,13.2870266,52.5862081,4588911-4796503
BERNAUER STR.,1,2015,11,13.2594356884283,52.5702316702088,4568174
BERNAUER STR. / KAMENER WEG,2,2015,11,13.2775096,52.5757586,4568174-4579685
BERNAUER STR. / MAIENWERDERWEG,1,2015,11,13.2546009,52.5619711,4568174-6926776
BIEDENKOPFER STR. / STERKRADER STR.,1,2015,11,13.2835953,52.5795651,4796784-4796788
BORGGREVESTR. / HOLZWEIDEPFAD,1,2015,11,13.3383301,52.5736238,4675215-23285693
BORSIGWALDER WEG / MIRAUSTR.,1,2015,11,13.3032979,52.5891287,4804097-25260861
BREITENBACHSTR.,1,2015,11,13.3095570981623,52.5786425692935,8100317
BRUNOWSTR. / BUDDESTR.,1,2015,11,13.2888315,52.5879802,4796510-4804125
BUDDESTR. / BERNSTORFFSTR.,1,2015,11,13.2866304,52.5912748,4796487-4804125
BUDDESTR. / GORKISTR.,2,2015,11,13.2874382,52.5900873,4765928-4804125
CAMPESTR.,1,2015,11,13.2703084047114,52.5919188374881,219906008
CONRADSTR. / HOLZHAUSER STR. / SOLTAUER STR.,1,2015,11,13.3028918,52.5807442,4569873-8752473-8752808
DOHLENSTR. / HABICHTSTR. / SPECHTSTR.,1,2015,11,13.2325753,52.5858551,24335955-24335958-24403265
EICHBORNDAMM,2,2015,11,13.3209782647302,52.5841232253749,4678199
EICHBORNDAMM / SCHARNWEBERSTR. / A 111 BAB AUTOBAHNZUBRINGER HAMBURG / 111 AS EI,1,2015,11,13.3119439,52.567969,4067902-4678199
EICHBORNDAMM / WALDSTR. / WITTESTR.,2,2015,11,13.3150977,52.5765709,4589063-4678199-4706735
ELCHDAMM,1,2015,11,13.2307241359162,52.5999903186868,5046521
ELCHDAMM / HEILIGENSEESTR.,1,2015,11,13.2472751,52.6008602,4645149-5046521
ERNSTSTR.,2,2015,11,13.299272985347,52.5830806588566,4645235
ERNSTSTR. / SCHUBARTSTR.,1,2015,11,13.3026499,52.5843038,4645231-4645235
GENERAL-BARBY-STR.,1,2015,11,13.3183798961769,52.5719789348874,4537082
GENERAL-BARBY-STR. / GENERAL-WOYNA-STR. / MELLER BOGEN,1,2015,11,13.3187186,52.5728603,4537082-4537083-4675235
GENERAL-BARBY-STR. / WALDSTR.,1,2015,11,13.3188928,52.5761148,4537082-4706735
GORKISTR.,1,2015,11,13.3005734632879,52.5914584820212,4765928
GORKISTR. / ZIEKOWSTR.,2,2015,11,13.2920003,52.5905563,4645177-4765928
GOTTHARDSTR.,1,2015,11,13.3422475194141,52.5665334457346,4804202
GOTTHARDSTR. / KAPWEG / SCHARNWEBERSTR.,4,2015,11,13.330582775,52.562509225,4067902-4071978-4804202
HECHELSTR.,1,2015,11,13.3225638623687,52.5678158667392,4675148
HECHELSTR. / SCHARNWEBERSTR.,1,2015,11,13.3217539,52.5656248,4067902-4675148
HEILIGENSEESTR.,1,2015,11,13.2465312233497,52.6011050090075,4645149
HEILIGENSEESTR. / KAROLINENSTR. / RUPPINER CHAUSSEE,1,2015,11,13.2749923,52.5979921,4645149-4645180-4795846
HENNIGSDORFER STR.,2,2015,11,13.2216325785582,52.6185117833578,6235863
HENNIGSDORFER STR. / SILBERHAMMERWEG / ANGLERSIEDLUNG,1,2015,11,13.226252008377974,52.625116672872174,5047013-6235863-24717990
HOLZHAUSER STR. / RÄUSCHSTR.,1,2015,11,13.3041297,52.5813518,4569873-4645234
HUMBOLDTSTR. / LINDAUER ALLEE,1,2015,11,13.345956,52.5745518,4067951-4068105
IM REHGRUND / JÄGERWEG,1,2015,11,13.2355973,52.6118591,5047014-18783875
JACOBSENWEG,1,2015,11,13.2985203829404,52.5814643710375,30748472
KAROLINENSTR.,1,2015,11,13.2795845173033,52.5947530463032,4645180
KIEFHEIDER WEG / RUPPINER CHAUSSEE,2,2015,11,13.2400796,52.6187277,4795846-5786835
KURT-SCHUMACHER-DAMM,2,2015,11,13.3156939503574,52.5595117423545,4432668
KURT-SCHUMACHER-DAMM / A 111 BAB AUTOBAHNZUBRINGER HAMBURG / 111 AS KURT-SCHU,1,2015,11,13.315892854555516,52.558679353357476,4432668
KURT-SCHUMACHER-DAMM / STRAßE 442 / CHARLES-CORCELLE-RING,2,2015,11,13.257346850000001,52.579216,4432668-4674816-28950011
LINDAUER ALLEE,1,2015,11,13.3455313677844,52.5746121047219,4067951
LINDAUER ALLEE / OLLENHAUERSTR. / WALDSTR.,3,2015,11,13.3321144,52.57547365,4067951-4706735-23125889
LINDAUER ALLEE / ROEDERNALLEE / TEICHSTR.,1,2015,11,13.347835025,52.574351975,4067951-4068065-4546470
NUßHÄHERSTR.,1,2015,11,13.2230285005498,52.5808822246646,5046436
OLLENHAUERSTR.,9,2015,11,13.3305006204459,52.5711567869549,23125889
OTISSTR. / SEIDELSTR. / ALLÉE ST. EXUPÉRY,1,2015,11,13.2996311,52.56977155,4537056-4801741-24802099
OTISSTR. / WITTESTR.,2,2015,11,13.3076581,52.5773746,4589063-4801741
ROEDERNALLEE,1,2015,11,13.3430962334298,52.5840289088583,4068065
ROEDERNALLEE / THYSSENSTR.,1,2015,11,13.3455177,52.580758,4068065-19200013
RUE DU CAPITAINE JEAN MARIDOR,1,2015,11,13.3032675472634,52.5672946814866,4801816
RUPPINER CHAUSSEE,7,2015,11,13.2469393879284,52.6133332616186,4795846
SCHARNWEBERSTR.,12,2015,11,13.3197398717116,52.5660242265617,4067902
SCHUBARTSTR.,1,2015,11,13.3027372172933,52.5842311691016,4645231
SCHULZENDORFER STR.,1,2015,11,13.2325869166452,52.612784539951,5026423
SEIDELSTR.,2,2015,11,13.2994845092439,52.5705779987973,4537056
SEIDELSTR. / A 111 BAB AUTOBAHNZUBRINGER HAMBURG / SEIDELSTRAßENBRÜCKE / 111 AS,1,2015,11,13.299339811865316,52.570442595495805,4537056
SEIDELSTR. / AVENUE JEAN MERMOZ,1,2015,11,13.3016581,52.5692335,4537056-4801849
TILE-BRÜGGE-WEG,1,2015,11,13.29584713822,52.5918716693195,16355536
TITUSWEG / WAIDMANNSLUSTER DAMM / ZIEKOWSTR.,1,2015,11,13.2916551,52.5960287,4540101-4645177-4802120
TRETTACHZEILE,1,2015,11,13.2932976544828,52.5871174948968,8873220
WALDSTR.,1,2015,11,13.3235606019999,52.575817356241,4706735
WILHELM-BLUME-ALLEE,1,2015,11,13.2895921451072,52.5937437969742,23048229
WITTESTR.,3,2015,11,13.3027221495472,52.5779972177316,4589063
ZIEKOWSTR.,1,2015,11,13.2920668141207,52.5911894751542,4645177
ALEMANNENSTR.,1,2015,12,13.2801518548364,52.6346396991374,16866582
ALTER BERNAUER HEERWEG,1,2015,12,13.36420690074,52.6134913334978,4802860
ALT-LÜBARS / BLANKENFELDER CHAUSSEE / SCHILDOWER WEG,1,2015,12,13.3602082,52.6197897,4802826-23547069-23547076
ALT-REINICKENDORF,1,2015,12,13.353116240024,52.5750667928934,4067922
ALT-REINICKENDORF / RESIDENZSTR. / KLEMKESTR. / KOPENHAGENER STR.,1,2015,12,13.359196827179815,52.57427474571443,4067922-4071972-4594653-33927189
ALT-WITTENAU,2,2015,12,13.328395519465,52.5914113230332,4765745
ALT-WITTENAU / EICHBORNDAMM,1,2015,12,13.3263192,52.5916679,4678199-4765745
ALT-WITTENAU / ORANIENBURGER STR.,1,2015,12,13.3342518,52.5896751,4071964-4765745
AM NORDGRABEN / ORANIENBURGER STR. / ORANIENBURGER BRÜCKE,1,2015,12,13.33469505,52.587430600000005,4071964-4678210
AM NORDGRABEN / ROEDERNALLEE / ROEDERNBRÜCKE,2,2015,12,13.3399001,52.58808515,4068065-4678210
AM PFINGSTBERG,1,2015,12,13.3024236676731,52.6264147853765,4804916
AM SCHÄFERSEE / RESIDENZSTR.,1,2015,12,13.3640953,52.5640676,4594653-4638298
AMENDESTR.,1,2015,12,13.3691434651511,52.5687017479048,4637899
AMSELGRUND / HERMSDORFER DAMM,1,2015,12,13.2914461,52.6070797,4540161-4804658
ARTUSWALL / PFADFINDERWEG,1,2015,12,13.2713398,52.629003,16857792-16857794
AVENUE CHARLES DE GAULLE,1,2015,12,13.3195318218214,52.6014889249063,4766096
BENEDIKTINERSTR. / SIGISMUNDKORSO,1,2015,12,13.2728337,52.6308627,16857795-16857796
BENEKENDORFFSTR. / GUTACHSTR.,1,2015,12,13.3236668,52.6093216,4802408-4802439
BERLINER STR.,5,2015,12,13.2840060021578,52.6650684434129,5051463
BERLINER STR. / HERMSDORFER DAMM,1,2015,12,13.2961414,52.639978049999996,4540161-5051463
BERLINER STR. / ROBINIENWEG,2,2015,12,13.30029,52.6368487,4804482-5051463
BERLINER STR. / SCHILDOWER STR.,1,2015,12,13.30438775,52.642537250000004,4805066-5051463
BERLINER STR. / WALDSEEWEG,2,2015,12,13.29836595,52.63974665,5051463-28817923
BLOMBERGER WEG,1,2015,12,13.3263770776552,52.5982046946769,4765876
BRODERSENSTR. / TESSENOWSTR.,1,2015,12,13.3422043,52.582784,4675254-4675278
BÜCHSENWEG,1,2015,12,13.3682700994019,52.5754332166677,4637909
BURGFRAUENSTR.,1,2015,12,13.3004755934329,52.6263783167185,4804925
BURGFRAUENSTR. / IM FISCHGRUND / FISCHGRUNDBRÜCKE,1,2015,12,13.2944173,52.62949735,4804925-5942803-16902540
CYCLOPSTR.,1,2015,12,13.3282422145378,52.5995660403983,4765877
DANNENWALDER WEG,3,2015,12,13.3515617663174,52.5922282537,4765352
DEUTSCHE STR. / FRIEDRICH-WILHELM-STR. / RESIDENZSTR.,2,2015,12,13.3617793,52.5685157,4594653-4638308-48906754
DIANASTR. / ORANIENDAMM / ZEHNTWERDERWEG,1,2015,12,13.3180277,52.6113276,9774898-25799886-332561057
DRONTHEIMER STR. / RITTERLANDWEG / SOLDINER STR. / PROVINZSTR.,1,2015,12,13.3770424,52.5607568,4610130-4610131-4610132-8150022
EICHBORNDAMM,2,2015,12,13.3209782647302,52.5841232253749,4678199
EICHBORNDAMM / ORANIENBURGER STR. / WILHELMSRUHER DAMM,2,2015,12,13.332948349999999,52.5954217,4071964-4678199-4765110
EICHHORSTER WEG,4,2015,12,13.3411793,52.6000307,4802786
EMMENTALER STR.,1,2015,12,13.3600166278863,52.5700783585869,4638312
EMMENTALER STR. / KLEMKESTR.,1,2015,12,13.3685047,52.5743501,4071972-4638312
EMMENTALER STR. / THURGAUER STR.,1,2015,12,13.358147,52.5695269,4638312-4638320
FALKENTALER STEIG,1,2015,12,13.297753345173,52.6249519713533,4804837
FELLBACHER STR.,1,2015,12,13.3049867686126,52.6165992813848,4804563
FLOTTENSTR. / KOPENHAGENER STR.,1,2015,12,13.3609569,52.5770035,33927189-37142126
FREIHEITSWEG,1,2015,12,13.3548635156706,52.5759287384163,4804132
FRIEDRICH-WILHELM-STR.,1,2015,12,13.3634514842086,52.5692274700229,48906754
FROHNAUER STR.,1,2015,12,13.2921131185613,52.6243387588405,10620897
GLIENICKER STR.,1,2015,12,13.3088864617734,52.617739411428,48395698
GOLLANCZSTR. / RAPPENWEG,1,2015,12,13.2865151,52.6436504,6247948-30932048
GRANATENSTR. / PROVINZSTR.,1,2015,12,13.379178,52.5688805,4610131-10616060
HAUSOTTERSTR. / RESIDENZSTR. / STARGARDTSTR.,2,2015,12,13.3627676,52.5666076,4594653-4637947-32009527
HERBSTSTR. / SOMMERSTR.,3,2015,12,13.3774198,52.5712531,4637937-4764692
HERMSDORFER STR. / ORANIENBURGER STR.,1,2015,12,13.3265459,52.6046487,4071964-4765947
HOFJÄGERALLEE,1,2015,12,13.2983098749268,52.6367511669979,26243963
HOLLÄNDERSTR. / MARKSTR.,2,2015,12,13.36451555,52.562688449999996,4610040-4610047
HOLZSTR. / LETTEALLEE / PROVINZSTR.,1,2015,12,13.3777555,52.5636178,4610131-4610176-4637776
IM WOLFSGARTENFELD,1,2015,12,13.3318798348519,52.5861279269337,4675305
JEAN-JAURÈS-STR.,1,2015,12,13.3221015773737,52.604360129753,4766077
KLEMKESTR.,2,2015,12,13.3682038155556,52.5744378615235,4071972
KÖNIGSHORSTER STR.,2,2015,12,13.3507469502295,52.5976971748601,4802809
KÜHLEWEINSTR. / PANKOWER ALLEE,1,2015,12,13.3704876,52.5640513,4610135-10755765
KÜHNEMANNSTR. / SCHWABSTR. / PROVINZSTR.,1,2015,12,13.378409,52.5660087,4610131-4637771-8913248
LENGEDER STR. / ROEDERNALLEE,2,2015,12,13.3451605,52.5812554,4068065-4380909
LETTEALLEE,2,2015,12,13.3716739705352,52.5632574154469,4610176
LINDAUER ALLEE / RESIDENZSTR.,2,2015,12,13.3590097,52.57331485,4067951-4594653
LUDOLFINGERPLATZ,1,2015,12,13.2882751498494,52.6328082667631,32459359
MARKSTR.,3,2015,12,13.3647554928134,52.560681419925,4610040
MARKSTR. / WALDERSEESTR.,2,2015,12,13.3646533,52.5612815,4610040-4610041
MAXIMILIANKORSO,1,2015,12,13.2786305251737,52.6341688572491,16885071
ORANIENBURGER STR.,7,2015,12,13.3338790664397,52.5906704581346,4071964
ORANIENBURGER STR. / GÖSCHENPLATZ,1,2015,12,13.3324697,52.597686,4071964-4765878
ORANIENBURGER STR. / RATHAUSPROMENADE / TESSENOWSTR.,1,2015,12,13.33328293616435,52.58142673892168,4071964-4675254-4675304
ORANIENBURGER STR. / SCHLITZER STR.,1,2015,12,13.3323736,52.5984932,4071964-4802791
ORANIENDAMM,8,2015,12,13.3211242927404,52.6094629430906,9774898
ORANIENDAMM / WAIDMANNSLUSTER DAMM / ZABEL-KRÜGER-DAMM,2,2015,12,13.3238076,52.6078615,4540101-4802391-9774898
PANKOWER ALLEE / REGINHARDSTR.,1,2015,12,13.3735122,52.5643197,4610134-10755765
PROVINZSTR.,3,2015,12,13.3788598376178,52.5676572039041,4610131
QUICKBORNER STR.,1,2015,12,13.3636145811134,52.6067307023854,4765339
RASCHDORFFSTR. / RESIDENZSTR. / THATERSTR.,3,2015,12,13.3621475,52.56780575,4594653-4637898-4638307
RESIDENZSTR.,9,2015,12,13.3637681737819,52.5650193591144,4594653
RESIDENZSTR. / RITTERLANDWEG,1,2015,12,13.3688645,52.5605939,4594653-4610132
RITTERLANDWEG,1,2015,12,13.3729024367465,52.5606690996091,4610132
ROBINIENWEG / TEGELER STR.,1,2015,12,13.3130001,52.6137608,4804482-22900000
ROEDERNALLEE,3,2015,12,13.3430962334298,52.5840289088583,4068065
SCHONACHER STR. / ZABEL-KRÜGER-DAMM / SCHLUCHSEESTR.,1,2015,12,13.3278784,52.6090183,4802391-4802431-4802554
SCHORFHEIDESTR.,1,2015,12,13.346523775372,52.5925090201707,11953271
SCHULZENDORFER STR. / BRANDTSTR. / HEINSESTR.,1,2015,12,13.3110499,52.6130517,4804662-20547483-28793517
SENFTENBERGER RING,2,2015,12,13.3563775135437,52.6051787867799,4802807
SENFTENBERGER RING / WILHELMSRUHER DAMM,2,2015,12,13.3561323,52.5966795,4765110-4802807
SIGISMUNDKORSO / LUDOLFINGERPLATZ,1,2015,12,13.2874323,52.6322887,16857795-32459359
SOMMERSTR. / KLEMKESTR.,1,2015,12,13.3732825,52.5747774,4071972-4637937
TESSENOWSTR.,1,2015,12,13.3387738301275,52.5822069935408,4675254
TIEFENSEER STR.,1,2015,12,13.3626239778486,52.5961729610689,4765357
TREUENBRIETZENER STR.,1,2015,12,13.3624548,52.5993326,4765338
TRIFTSTR.,1,2015,12,13.3187298892992,52.5898332690244,4645243
WAIDMANNSLUSTER DAMM,1,2015,12,13.2982888345046,52.5983495335394,4540101
WESENDORFER STR.,1,2015,12,13.361682854395,52.601473840283,21759542
WILHELMSRUHER DAMM,3,2015,12,13.3528476432306,52.5965100817386,4765110
WILTINGER STR. / ZELTINGER PLATZ,1,2015,12,13.2904724,52.6342954,4902505-4902523
WINTERSTR. / HAUSOTTERPLATZ,1,2015,12,13.3758444,52.5694524,4637946-291847341
WITTENAUER STR. / BLITZENRODER RING,1,2015,12,13.339881949999999,52.6064053,4802586-4802588
ZABEL-KRÜGER-DAMM,2,2015,12,13.3395116772596,52.6120303301954,4802391
ZELTINGER PLATZ / ZELTINGER PLATZ,1,2015,12,13.2905184683848,52.6334265033681,4902505
ALTENBERGER WEG / DIETZGENSTR.,1,2015,13,13.4017279,52.5885707,4764689-4777304
ALTENBERGER WEG / WALDSTR.,1,2015,13,13.3966756,52.5881207,4777277-4777304
AM BÜRGERPARK / LEONHARD-FRANK-STR.,1,2015,13,13.3885326,52.5694522,4764176-4764178
AM BÜRGERPARK / WILHELM-KUHR-STR.,1,2015,13,13.3912,52.5679551,4764176-10749740
AM NORDGRABEN / HEINZ-BRANDT-STR.,1,2015,13,13.381447600000001,52.5969607,23984630-145671810
AM SCHLOßPARK / OSSIETZKYSTR. / PARKSTR.,2,2015,13,13.4075487,52.5738855,4764644-4764656-4764658
AMALIENPARK / BREITE STR.,1,2015,13,13.4142897,52.5721626,4631947-24668380
BAHNHOFSTR. / BERLINER STR. / PASEWALKER STR. / ROSENTHALER STR.,4,2015,13,13.424971553551467,52.58367475547178,4631700-4776203-4776771-19435555
BAHNHOFSTR. / BLANKENBURGER WEG / PANKSTR.,1,2015,13,13.4366685,52.5925359,4776771-4776775-19435661
BERLINER STR.,11,2015,13,13.4126908669094,52.5628072028975,4631700
BERLINER STR. / BINZSTR.,1,2015,13,13.413012,52.5630239,4631700-114586158
BERLINER STR. / BLANKENFELDER STR. / HAUPTSTR. / SCHÖNHAUSER STR.,1,2015,13,13.404671966666667,52.595655566666665,4045656-4631700-4777025-35313212
BERLINER STR. / BREITE STR.,2,2015,13,13.4098491,52.5710863,4631700-4631947
BERLINER STR. / BRENNERSTR. / MÜHLENSTR. / VINETASTR.,4,2015,13,13.413202876349382,52.5588259007258,4631700-10575630-35573583-146173206
BERLINER STR. / ELSA-BRÄNDSTRÖM-STR.,3,2015,13,13.4134024,52.5599309,4631700-23845949
BERLINER STR. / GRANITZSTR. / KISSINGENSTR.,4,2015,13,13.41301975,52.5663531,4631700-4632067-144945039
BERLINER STR. / HADLICHSTR.,2,2015,13,13.4120591,52.5682486,4631700-4776148
BERLINER STR. / SCHULSTR.,1,2015,13,13.4113011,52.5696287,4631700-172248643
BEUTHSTR.,2,2015,13,13.4079336219913,52.5867039644422,4777089
BEUTHSTR. / DIETZGENSTR. / PLATANENSTR.,1,2015,13,13.402643099999999,52.585532900000004,4764689-4764829-4777089
BLANKENBURGER STR.,3,2015,13,13.4181932648739,52.5842311056913,4776611
BLANKENBURGER STR. / DIETZGENSTR. / OSSIETZKYPLATZ,4,2015,13,13.40400545,52.5812048,4764689-4776611-26795568
BLANKENBURGER STR. / ELISABETH-CHRISTINEN-STR.,1,2015,13,13.4198531,52.584719,4776611-4776621
BLANKENBURGER STR. / GRUMBKOWSTR.,1,2015,13,13.423608349999999,52.58578265,4776611-4776633
BLANKENBURGER STR. / LINDENBERGER STR.,1,2015,13,13.4176446,52.5840881,4776611-22875171
BLANKENFELDER CHAUSSEE,2,2015,13,13.3959360564856,52.6130089401601,4803116
BLANKENFELDER CHAUSSEE / HAUPTSTR.,1,2015,13,13.385806200000001,52.609878,4045656-4803116
BLANKENFELDER STR. / GARTENSTR.,1,2015,13,13.428937,52.6026402,16419385-35313212
BLANKENFELDER STR. / ROSENTHALER WEG,1,2015,13,13.4200029,52.606282,4407913-35313212
BLEICHERODER STR.,1,2015,13,13.423094921887,52.5758429555734,4776154
BLEICHERODER STR. / MENDELSTR. / STIFTSWEG,1,2015,13,13.4189137,52.575,4776154-4776166-138166311
BORKUMSTR.,1,2015,13,13.4170032333061,52.5654893274365,123959488
BREITE STR.,3,2015,13,13.4079018274382,52.5702413360264,4631947
BUCHHOLZER STR. / GRUMBKOWSTR.,1,2015,13,13.4194235,52.5914504,4776633-4777064
BUCHHORSTER STR. / HAUPTSTR. / KASTANIENALLEE / SCHÖNHOLZER WEG,1,2015,13,13.371148300000002,52.59076323333334,4045656-4777290-25957604-35149993
BUCHHORSTER STR. / SEEGERSTR.,1,2015,13,13.3675841,52.5913614,4765042-35149993
CRUSEMARKSTR.,1,2015,13,13.4112912467808,52.5745257148966,21775474
CUNISTR.,1,2015,13,13.4238229533639,52.6088154295399,16308934
DAMEROWSTR.,2,2015,13,13.4223180362352,52.5734878590114,4631946
DIETZGENSTR.,2,2015,13,13.4027407418101,52.59290150731,4764689
DIETZGENSTR. / KASTANIENALLEE,1,2015,13,13.4027779,52.5931597,4764689-4777290
DIETZGENSTR. / OSSIETZKYPLATZ / HERMANN-HESSE-STR.,1,2015,13,13.4037922,52.5809268,4764174-4764689-26795568
DIETZGENSTR. / SCHILLERSTR. / SCHÖNHAUSER STR.,1,2015,13,13.392673975000001,52.588224749999995,4764689-4765047-4777025
DIETZGENSTR. / WACKENBERGSTR.,1,2015,13,13.4034641,52.5829488,4764689-4777029
DOLOMITENSTR. / MAXIMILIANSTR.,1,2015,13,13.404207,52.5613308,4631988-4631994
DOLOMITENSTR. / MÜHLENSTR.,1,2015,13,13.4083447,52.5637163,4631988-10575630
ELISABETHWEG / OSSIETZKYSTR.,1,2015,13,13.407182,52.574605,4764652-4764658
ELSA-BRÄNDSTRÖM-STR. / NEUMANNSTR. (ENDE),6,2015,13,13.422344200000001,52.559841649999996,4631542-23845949
ELSA-BRÄNDSTRÖM-STR. / PRENZLAUER PROMENADE,2,2015,13,13.4279251,52.5606026,4484351-23845949
ESPLANADE,1,2015,13,13.406817861956,52.5578541025748,123384345
ESPLANADE / STAVANGERSTR.,1,2015,13,13.4127773,52.5575618,4782311-123384345
FLORAPROMENADE,1,2015,13,13.4044410346588,52.5637087922606,144842849
FLORASTR.,2,2015,13,13.4039660910225,52.5655126115084,4632868
FLORASTR. / MÜHLENSTR.,2,2015,13,13.4065512,52.5653776,4632868-10575630
FRIEDRICH-ENGELS-STR. / NORDENDSTR.,1,2015,13,13.3881433,52.5888589,4764795-38304188
GALENUSSTR. / PASEWALKER STR.,4,2015,13,13.4287919,52.5816379,4776149-4776203
GÖRSCHSTR.,1,2015,13,13.4007527786019,52.5652292905424,4632870
GRABBEALLEE,5,2015,13,13.398776926789,52.575482059266,4764190
GRABBEALLEE / HEINRICH-MANN-STR. / SCHÖNHOLZER STR. / SCHÖNHOLZER BRÜCKE (PANKE),2,2015,13,13.398260533333334,52.57101533333334,4764162-4764166-4764190-184581435
GRABBEALLEE / MAJAKOWSKIRING,1,2015,13,13.3992188,52.574224,4764190-4764676
GRABBEALLEE / PASTOR-NIEMÖLLER-PLATZ,1,2015,13,13.3985082,52.5799107,4764190-4764196
GRABBEALLEE / PAUL-FRANCKE-STR.,1,2015,13,13.3988146,52.5724002,4764190-34618182
GRABBEALLEE / TSCHAIKOWSKISTR.,1,2015,13,13.3982868,52.5768303,4764190-4764208
GRANITZSTR.,2,2015,13,13.4202386154764,52.5697982613788,144945039
GRANITZSTR. / GRANITZSTR.,1,2015,13,13.4202386154764,52.5697982613788,144945039
GRANITZSTR. / HAßFURTER WEG,1,2015,13,13.4266326,52.5717696,124126500-144945039
GRANITZSTR. / PRENZLAUER PROMENADE / ROTHENBACHSTR.,2,2015,13,13.428782649999999,52.5719513,4484351-25833007-144945039
GÜLLWEG / WALDSTR. / HERMANN-HESSE-STR.,4,2015,13,13.400400574999999,52.580394975,4764174-4764684-4777277
HADLICHSTR.,2,2015,13,13.4149689878437,52.5695737174334,4776148
HAUPTSTR.,3,2015,13,13.3738404612204,52.5951318680356,4045656
HAUPTSTR. / LESSINGSTR. (ENDE),1,2015,13,13.369937,52.5893524,4045656-4765050
HEINRICH-BÖLL-STR. / DIETZGENSTR. / UHLANDSTR.,1,2015,13,13.394055625,52.592518424999994,4764689-4765039-4777119
HEINRICH-MANN-STR. / HERMANN-HESSE-STR.,5,2015,13,13.389674,52.5743269,4764166-4764174
HERMANN-HESSE-STR.,8,2015,13,13.3951271094977,52.5777737106119,4764174
HERTZSTR.,1,2015,13,13.3602275338895,52.5853838767019,27811428
HEYNSTR.,1,2015,13,13.4027461679331,52.5639047510264,23926904
KASTANIENALLEE,3,2015,13,13.3869394622613,52.5912758528996,4777290
KGA FRIEDRICHSHÖHE / PRENZLAUER PROMENADE / ARNOLD-ZWEIG-STR.,2,2015,13,13.4271242,52.56314815,4484351-4632071
KLEMKESTR. / STRAßE VOR SCHÖNHOLZ,1,2015,13,13.3802028,52.5749761,4071972-23984497
KÖRNERSTR. / SCHILLERSTR.,1,2015,13,13.3911795,52.58961295,4765047-4777103
KREUZSTR. / PARKSTR. / SCHÖNHOLZER STR.,3,2015,13,13.3988273,52.57060165,4764162-4764188-4764656
KUCKHOFFSTR.,1,2015,13,13.3926390514569,52.5822158051895,4764815
LUDWIG-QUIDDE-STR. / LUDWIG-QUIDDE-STR.,1,2015,13,13.4419761447098,52.5994485454165,16418955
MARIENSTR. / SCHÖNHAUSER STR.,1,2015,13,13.4257045,52.5949122,4777025-4777063
MASURENSTR. / MÜHLENSTR.,2,2015,13,13.409734,52.5626734,10575630-126295932
MAXIMILIANSTR. / MÜHLENSTR.,5,2015,13,13.4109603,52.5611705,4631994-10575630
MÜHLENSTR.,2,2015,13,13.4082714917984,52.5637600721591,10575630
MÜHLENSTR. / ÖTZTALER STR.,1,2015,13,13.4099522,52.5624142,10575630-144842971
NANTESSTR.,1,2015,13,13.4195488175664,52.6031932158536,16420774
NANTESSTR. / PETITWEG / ROSENTHALER WEG,1,2015,13,13.4170335,52.6055473,4407913-16419741-16420774
NEUMANNSTR.,3,2015,13,13.4219220120656,52.5611626030563,4631542
NEUMANNSTR. / ARNOLD-ZWEIG-STR.,1,2015,13,13.421629549999999,52.56260545,4631542-4632071
NISBLÉSTR. / ROSENTHALER STR. / SCHÖNHAUSER STR.,2,2015,13,13.4286289,52.599508,4777025-19435555-328776776
NORDENDSTR.,1,2015,13,13.3886098833392,52.5889573911935,38304188
OSSIETZKYSTR.,2,2015,13,13.4076943893072,52.573592896293,4764658
OSSIETZKYSTR. / BREITE STR.,4,2015,13,13.4089668,52.5709845,4631947-4764658
OSSIETZKYSTR. / PESTALOZZISTR.,1,2015,13,13.4080006,52.5729779,4764655-4764658
PARKSTR.,1,2015,13,13.4029930164993,52.5726346964793,4764656
PASEWALKER STR.,3,2015,13,13.4300724373257,52.5881470507929,4776203
PASTOR-NIEMÖLLER-PLATZ,1,2015,13,13.3977146375588,52.580095967874,4764196
PRENZLAUER PROMENADE,1,2015,13,13.4273734491411,52.5660211823881,4484351
PRENZLAUER PROMENADE / TINIUSSTR.,1,2015,13,13.429231,52.5733745,4484351-4684853
PRENZLAUER PROMENADE / TRESKOWSTR.,2,2015,13,13.4277753,52.5619904,4484351-4684837
PRENZLAUER PROMENADE / ZEILER WEG,1,2015,13,13.4281839,52.5701095,4484351-4632158
QUICKBORNER STR.,1,2015,13,13.3636145811134,52.6067307023854,4765339
ROLANDSTR.,1,2015,13,13.4171415843216,52.5823393788315,4776624
SCHLOßALLEE,1,2015,13,13.4241076500913,52.5821605388684,4776636
SCHÖNERLINDER STR.,1,2015,13,13.4373353280849,52.6314121616321,4484357
SCHÖNERLINDER STR. / A 114 BAB AUTOBAHNZUBRINGER PRENZLAU / 114 AS SCHÖNERLINDER,3,2015,13,13.438245137003202,52.63059274381971,4484357
SCHÖNHAUSER STR.,1,2015,13,13.4265794992723,52.5962596563385,4777025
SKLADANOWSKYSTR. / TRESKOWSTR.,1,2015,13,13.411822149999999,52.5722124,4684837-4764825
STRAßE 41,1,2015,13,13.4345320515179,52.6188783510039,16307629
STRAßE NACH ARKENBERGE / SCHÖNERLINDER STR.,1,2015,13,13.4302285,52.6209484,4484357-16307710
STRAßE VOR SCHÖNHOLZ,1,2015,13,13.3805100266029,52.5747189883749,23984497
STUBNITZSTR.,1,2015,13,13.4171445499129,52.5673870845725,123955028
THULESTR.,1,2015,13,13.4220296548107,52.5550761858744,35573545
TRELLEBORGER STR. / VINETASTR. / WESTERLANDSTR.,1,2015,13,13.418134850000001,52.558760899999996,4631706-35573583-123943333
TRIFTSTR.,1,2015,13,13.431018777323,52.6117047513508,9713563
UHLANDSTR.,1,2015,13,13.3665034909487,52.5935049852874,4765039
VEREINSSTEG,1,2015,13,13.3763817726382,52.5771450926913,27154460
WALDSTEG,1,2015,13,13.3722364271858,52.5804729320729,4764860
WALDSTR.,2,2015,13,13.3981534466501,52.5846591597016,4777277
WIESENWINKEL,2,2015,13,13.3795594557431,52.5930932782715,22970212
WILHELM-KUHR-STR.,1,2015,13,13.3931454620804,52.5684922341865,10749740
WILHELM-KUHR-STR. / KREUZSTR.,1,2015,13,13.3985053,52.5692747,4764188-10749740
WILHELMSRUHER DAMM,1,2015,13,13.3528476432306,52.5965100817386,4765110
WILHELMSRUHER DAMM / UHLANDSTR.,1,2015,13,13.3694981,52.5973897,4765039-4765110
WILHELM-WOLFF-STR.,1,2015,13,13.3923497305769,52.5801807569079,4764806
WOLLANKSTR. / BREHMESTR. / SCHULZESTR.,8,2015,13,13.3942851,52.5650201,4632866-4764184-23926878
WOLLANKSTR. / GÖRSCHSTR.,1,2015,13,13.3979363,52.5674301,4632866-4632870
WOLLANKSTR. / NEUE SCHÖNHOLZER STR. / SCHÖNHOLZER STR. / BREITE STR.,4,2015,13,13.401432900000001,52.56924393333333,4631947-4632866-4632867-4764162
WURSTMACHERWEG / WIESENWINKEL,1,2015,13,13.3786839,52.5931967,4765096-22970212
ZEUSCHELSTR.,1,2015,13,13.4245950215287,52.6161457645201,16309314
AM STEINBERG / PRENZLAUER PROMENADE / THULESTR.,2,2015,13,13.4291345,52.556392725,4484351-4631744-35573545
ALT-BUCH / AM STENER BERG / SCHWANEBECKER CHAUSSEE / ZEPERNICKER STR.,1,2015,14,13.505462200000002,52.6369603,4684106-9531288-9536788-26176072
ALT-BUCH / PÖLNITZWEG,2,2015,14,13.5031149,52.6365293,4684106-10949629
GROSCURTHSTR. / WOLFGANG-HEINZ-STR. / BRUNO-APITZ-STR.,1,2015,14,13.4965498,52.6287959,6195888-10943907-10991305
KAROWER CHAUSSEE / KAROWER STR. / LINDENBERGER WEG / WILTBERGSTR.,1,2015,14,13.496943249678935,52.613788432952354,6195996-10946970-10953274-16237828
KAROWER CHAUSSEE / ROBERT-RÖSSLE-STR. / WOLFGANG-HEINZ-STR.,2,2015,14,13.49825585,52.62818285,6195888-10951433-10953274
RÖBELLWEG / WILTBERGSTR.,1,2015,14,13.48956815,52.63367825,10416383-10946970
SCHÖNERLINDER CHAUSSEE,1,2015,14,13.46504213625,52.645642650777,23228474
WALTER-FRIEDRICH-STR.,1,2015,14,13.49481099122,52.6320818031263,10939243
WOLFGANG-HEINZ-STR.,1,2015,14,13.4930229270139,52.6290091795001,6195888
ZEPERNICKER STR.,1,2015,14,13.5139061859955,52.6411696961504,9536788
ACHILLESSTR.,1,2015,14,13.4898780014432,52.6172060599781,10993994
ACHILLESSTR. / BUCHER CHAUSSEE,1,2015,14,13.487713500000002,52.61810405,10993994-10998395
ACHILLESSTR. / CHRONISTENECK,1,2015,14,13.490074737477876,52.617682944927225,10993994
ALBERTINENSTR. / PISTORIUSSTR. / BERLINER ALLEE,1,2015,14,13.4588085,52.55016535,4631747-11379802-123891747
ALT-KAROW,1,2015,14,13.48354139826,52.6126029344585,10998543
ALT-KAROW / BAHNHOFSTR. / BLANKENBURGER CHAUSSEE / STRAßE 52,1,2015,14,13.468243401188749,52.59992090012073,4684109-4776771-10998543-15993153
ALT-KAROW / FRUNDSBERGSTR.,1,2015,14,13.4828471,52.6115515,10998543-11013635
AM HOHEN FELD,1,2015,14,13.4936822323373,52.6118245835284,11009398
AM STEINBERG,1,2015,14,13.4366161840274,52.5592163043671,4631744
AM STEINBERG / HEINERSDORFER STR.,1,2015,14,13.4457089,52.572381449999995,4631744-25528918
AMALIENSTR.,1,2015,14,13.4544915798301,52.5566296929182,4684959
AN DER INDUSTRIEBAHN,2,2015,14,13.4611234968475,52.5619894192652,4783341
AN DER INDUSTRIEBAHN / LIEBERMANNSTR. / PASEDAGPLATZ,1,2015,14,13.4611885,52.5600363,4783334-4783335-4783341
ANTONPLATZ / LANGHANSSTR. / BERLINER ALLEE,1,2015,14,13.450726879653,52.54845656736808,11379802-30860008-34129302
BAHNHOFSTR.,2,2015,14,13.4407607060048,52.5914459184595,4776771
BAHNHOFSTR. / RUDELSBURGSTR.,1,2015,14,13.4421894,52.5909449,4776771-9189984
BAHNHOFSTR. / SCHÄFERSTEGE,1,2015,14,13.450821,52.5912667,4776771-25528907
BEHAIMSTR. / LANGHANSSTR.,1,2015,14,13.4462561,52.5499738,30860008-141220151
BERLINER ALLEE,5,2015,14,13.4614489415765,52.5506473863118,11379802
BERNKASTELER STR.,1,2015,14,13.4731771164326,52.5570689574386,18398010
BERNKASTELER STR. / GROßE SEESTR. / RENNBAHNSTR. / BERLINER ALLEE,1,2015,14,13.466865996787414,52.55691936686046,4684925-6007924-11379802-18398010
BERNKASTELER STR. / PIESPORTER STR.,1,2015,14,13.4782161,52.557552,4783329-18398010
BEUTHENER STR. / BLANKENBURGER CHAUSSEE / STRAßE 43,1,2015,14,13.476033951783124,52.6046163001811,4684109-11014692-15993153
BIZETSTR.,2,2015,14,13.457877152512,52.5486720070626,4787341
BIZETSTR. / MAHLERSTR.,2,2015,14,13.4532838,52.5476741,4787341-6083156
BLANKENBURGER CHAUSSEE,1,2015,14,13.4745385802535,52.604174048378,4684109
BLANKENBURGER CHAUSSEE / STRAßE 39 / STRAßE 45,2,2015,14,13.476221901783124,52.6033834001811,4684109-15993153-15993153
BLANKENBURGER PFLASTERWEG / HEINERSDORFER STR.,1,2015,14,13.4531522,52.5899962,16266560-25528918
BLANKENBURGER STR.,2,2015,14,13.4443293317291,52.5735957636147,4783361
BLANKENBURGER STR. / ROMAIN-ROLLAND-STR.,1,2015,14,13.4396106,52.5679696,4684850-4783361
BLANKENBURGER STR. / STRAßE 30,1,2015,14,13.45913015,52.5902185,4783361-15993153
BÖRNESTR. / LANGHANSSTR.,1,2015,14,13.4481709,52.549368,4631844-30860008
BÖTTNERSTR. / PANKGRAFENSTR.,1,2015,14,13.4632315,52.6157589,11013251-11024224
BUCHER CHAUSSEE,1,2015,14,13.4885826896678,52.619191129814,10998395
BUNDESSTR. 2 / AM LUCHGRABEN,1,2015,14,13.501491328492634,52.60104354445477,279127599
BUNZLAUER STR. / SCHRÄGER WEG / SPINOLASTR.,1,2015,14,13.4708871,52.6102719,11013543-11015317-297504601
BUSCHALLEE,2,2015,14,13.4769418277575,52.5532598091591,4783468
BUSCHALLEE / GARTENSTR.,2,2015,14,13.4632523,52.574397399999995,4783468-16239534
BUSCHALLEE / HANSASTR.,2,2015,14,13.4798346,52.5532976,4783464-4783468
CALIGARIPLATZ / GUSTAV-ADOLF-STR. / HEINERSDORFER STR. / PRENZLAUER PROMENADE,1,2015,14,13.439188433333333,52.568349133333335,4484351-23008625-25528918-65940310
CHARLOTTENBURGER STR.,3,2015,14,13.4431893626368,52.552967516124,23008646
DGZ-RING / WILHELM-WAGENFELD-STR.,1,2015,14,13.4406967,52.558008,25576085-59356157
DORFSTR. / MALCHOWER CHAUSSEE / ORTNITSTR. / MALCHOWER BRÜCKE,1,2015,14,13.48269545,52.572205249999996,23008576-24205990-37022828
FALKENBERGER STR.,3,2015,14,13.478899165423,52.5561811459373,4783466
FALKENBERGER STR. / BERLINER ALLEE,1,2015,14,13.467609450000001,52.554986650000004,4783466-11379802
FALKENBERGER STR. / GIERSSTR.,1,2015,14,13.4826947,52.5561368,4783466-4783508
FRANKENSTEINSTR. / FRANKENSTR.,1,2015,14,13.4545814,52.6068219,9189979-9189981
FRIESICKESTR. / LANGHANSSTR.,1,2015,14,13.4394158,52.5521307,4631759-30860008
GARTENSTR.,1,2015,14,13.4559142250117,52.5946460866126,16239534
GARTENSTR. / WEGENERSTR.,1,2015,14,13.4628659,52.57363225,4787401-16239534
GEHRINGSTR.,1,2015,14,13.4655798040179,52.5624181231465,4783339
GOUNODSTR.,1,2015,14,13.4599023040813,52.5471671868656,4787358
GRAACHER STR. / BERLINER ALLEE,1,2015,14,13.4664339,52.5587393,4783455-11379802
GREIFSWALDER STR. / GÜRTELSTR. / LEHDERSTR. / BERLINER ALLEE,3,2015,14,13.447976400000002,52.54698805,4615034-4787318-11379802-24217891
GROßE SEESTR.,1,2015,14,13.4587242707191,52.5576076780404,6007924
GRUNDACKERWEG / BAHNHOFSTR.,1,2015,14,13.46595375,52.6008506,4776771-11015789
GÜRTELSTR.,3,2015,14,13.4513221838676,52.5455677326387,24217891
GUSTAV-ADOLF-STR.,2,2015,14,13.4422537180421,52.5569132830976,23008625
GUSTAV-ADOLF-STR. / LEHDERSTR.,1,2015,14,13.4314798,52.5521782,4787318-23008625
GUSTAV-ADOLF-STR. / RENNBAHNSTR.,1,2015,14,13.4543199,52.5621698,4684925-23008625
GUSTAV-ADOLF-STR. / STREUSTR.,1,2015,14,13.4331072,52.5528973,4631851-23008625
GUSTAV-ADOLF-STR. / WIGANDSTALER STR.,2,2015,14,13.4443439,52.5578265,23008593-23008625
HAMBURGER PLATZ / HAMBURGER PLATZ,1,2015,14,13.439154881942,52.5557244888231,26121590
HANSASTR.,3,2015,14,13.4812022943147,52.5539349721951,4783464
HEINERSDORFER STR.,2,2015,14,13.4495454160865,52.5853748186656,25528918
HELGIWEG / OSTARAWEG,1,2015,14,13.465776,52.5722362,22973174-141577317
HIBISKUSWEG / MALCHOWER STR. / SCHNEEHORNPFAD,2,2015,14,13.4514563,52.56787575,4783372-142061795-142063347
HÖDURSTR.,1,2015,14,13.4408816065908,52.5710574882595,4684873
JACOBSOHNSTR.,2,2015,14,13.4354456655276,52.5562122124072,4645566
JACOBSOHNSTR. / PISTORIUSSTR.,3,2015,14,13.4359111,52.5564268,4631747-4645566
KAROWER DAMM,2,2015,14,13.4660931746235,52.5960099962017,16237667
KAROWER DAMM / LINDENBERGER WEG,2,2015,14,13.4622678,52.5941028,16237667-16237828
KGA AM STEINBERG / TINO-SCHWIERZINA-STR. / TRESKOWSTR.,1,2015,14,13.4341386,52.5602225,4684837-4684895
LANGHANSSTR.,4,2015,14,13.4403806816692,52.5518193958172,30860008
LEHDERSTR.,1,2015,14,13.4397957316589,52.5498918432467,4787318
LEHDERSTR. / ROELCKESTR.,1,2015,14,13.4411805,52.549512,4068168-4787318
MAHLERSTR. / MEYERBEERSTR.,1,2015,14,13.45377,52.5468207,6083156-22957980
MAHLERSTR. / TASSOSTR. / BERLINER ALLEE,1,2015,14,13.452763225,52.548711275,4631848-6083156-11379802
MALCHOWER STR.,1,2015,14,13.4506570038938,52.5680493718211,4783372
MATESTR. / SCHÖNERLINDER WEG,1,2015,14,13.484159,52.61668,10995646-11022844
MAX-STEINKE-STR. / MIRBACHPLATZ,1,2015,14,13.449087,52.5525872,4631839-4631852
MIRBACHPLATZ / PISTORIUSSTR.,1,2015,14,13.4494685,52.5527259,4631747-4631839
MIRBACHPLATZ / SCHÖNSTR.,1,2015,14,13.4493277,52.5530546,4631839-4684968
OSTARAWEG / ULLERWEG,1,2015,14,13.4623277,52.5715975,22973174-141805133
PASEDAGPLATZ / RENNBAHNSTR.,1,2015,14,13.4605845,52.5595538,4684925-4783335
PASEDAGPLATZ / RENNBAHNSTR. / SCHÖNSTR.,1,2015,14,13.4605845,52.5595538,4684925-4684968-4783335
PIESPORTER STR. / DARßER STR.,1,2015,14,13.4770686,52.5669658,4783326-4783329
PISTORIUSPLATZ / PISTORIUSSTR.,2,2015,14,13.4516143,52.5521569,4631747-6180361
PISTORIUSSTR.,4,2015,14,13.4455962766656,52.5538011848618,4631747
PRENZLAUER PROMENADE / SPIEKERMANNSTR.,1,2015,14,13.4296552,52.5541858,4484351-4631711
RENNBAHNSTR. / ROELCKESTR.,2,2015,14,13.4571166,52.5609987,4068168-4684925
ROELCKESTR.,3,2015,14,13.453214617807,52.5582873823907,4068168
ROMAIN-ROLLAND-STR.,5,2015,14,13.4388869180319,52.56866473257,4684850
ROMAIN-ROLLAND-STR. / STRAßE 16,2,2015,14,13.4545977,52.5892615,4684850-15993153
ROTHENBACHSTR.,2,2015,14,13.433390805206,52.5706374742022,25833007
RUDELSBURGSTR.,1,2015,14,13.4501457324378,52.5978348524733,9189984
SMETANASTR. / BERLINER ALLEE,1,2015,14,13.458399,52.5498264,4787350-11379802
STREUSTR. / BERLINER ALLEE,1,2015,14,13.4496802,52.5478401,4631851-11379802
TASSOSTR.,1,2015,14,13.4530658308277,52.5502046641865,4631848
TEICHBERGSTR. / BUCHER CHAUSSEE,1,2015,14,13.4871012,52.6174249,10995524-10998395
TINO-SCHWIERZINA-STR.,3,2015,14,13.4352825891235,52.563108804377,4684895
TINO-SCHWIERZINA-STR. / ROMAIN-ROLLAND-STR.,2,2015,14,13.4400652,52.5672613,4684850-4684895
TINO-SCHWIERZINA-STR. / STRAßE 49,1,2015,14,13.4566372,52.58318215,4684895-15993153
TRESEBURGER STR.,1,2015,14,13.4628678609755,52.5971439445414,76236116
WOELCKPROMENADE,1,2015,14,13.4543114796885,52.5537352001374,6180697
ZUM KAPPGRABEN / HOFZEICHENDAMM / ALT-KAROW / BUCHER CHAUSSEE / SCHÖNERLINDER,1,2015,14,13.487370316666665,52.61591061666667,10998395-10998543-11008373-11009143
ZUR RINGALLEE / AN DER INDUSTRIEBAHN / ROELCKESTR.,3,2015,14,13.460951408808976,52.56409274336005,4068168-4783341-37835088
AHLBECKER STR. / PRENZLAUER ALLEE,2,2015,15,13.4267382,52.5437084,4484427-4631550
AM FALKPLATZ / GAUDYSTR.,1,2015,15,13.4060031,52.5456218,4631474-4631475
BEHMSTR. / MALMÖER STR. / SCHIVELBEINER STR.,1,2015,15,13.4037316,52.551416,4215491-8149649-8658097
BEHMSTR. / SCHWEDTER STEG / BEHMSTRAßENBRÜCKE,1,2015,15,13.39993644502815,52.5509612307506,4215491-4740780
BERLINER STR.,4,2015,15,13.4126908669094,52.5628072028975,4631700
BERLINER STR. / ESCHENGRABEN,1,2015,15,13.4146352,52.5561469,4631700-23712169
BERLINER STR. / SCHONENSCHE STR. / SCHÖNHAUSER ALLEE,2,2015,15,13.41478155,52.554559225,4615362-4631700-4631710
BERLINER STR. / THULESTR.,1,2015,15,13.4148092,52.555014,4631700-35573545
BERNAUER STR.,1,2015,15,13.3944660641299,52.5378118924432,4597231
BERNAUER STR. / EBERSWALDER STR. / SCHWEDTER STR.,6,2015,15,13.4045677,52.5406393,4597231-4606228-4631472
BORNHOLMER STR.,1,2015,15,13.403341356776,52.5545168101507,4588954
BORNHOLMER STR. / AALESUNDER STR.,1,2015,15,13.4075127,52.5542835,4588954-8152828
BORNHOLMER STR. / BJÖRNSONSTR. / MALMÖER STR.,2,2015,15,13.4025748,52.5545605,4588954-8149649-24754366
BORNHOLMER STR. / DRIESENER STR. / NORDKAPSTR.,2,2015,15,13.406318375000001,52.55414715,4588954-8149650-25836159
BORNHOLMER STR. / GOTLANDSTR. / SEELOWER STR.,1,2015,15,13.4110577,52.5540773,4588954-4606155-8150017
BORNHOLMER STR. / SCHÖNFLIEßER STR. / STAVANGERSTR.,2,2015,15,13.4087318,52.5542098,4588954-4606154-4782311
BORNHOLMER STR. / SCHÖNHAUSER ALLEE / WISBYER STR.,10,2015,15,13.41446345,52.55381920000001,4068093-4588954-4615362
BORNHOLMER STR. / TEGNERSTR.,1,2015,15,13.409923,52.5541422,4588954-186783618
BUCHHOLZER STR. / MILASTR. / SCHÖNHAUSER ALLEE,2,2015,15,13.412670825,52.5452622,4606275-4615362-4631478
CANTIANSTR. / SCHÖNHAUSER ALLEE / TOPSSTR.,2,2015,15,13.412064557476825,52.54292763265143,4615362-4631473-28992603
CHORINER STR.,2,2015,15,13.4084393060162,52.5346034606845,4606230
CHORINER STR. / ODERBERGER STR. / SCHÖNHAUSER ALLEE / SREDZKISTR.,1,2015,15,13.411994216013534,52.53788412161185,4606230-4606260-4615362-31352223
CHRISTINENSTR. / FEHRBELLINER STR. / TEUTOBURGER PLATZ,1,2015,15,13.4088735,52.531274,4606231-41927001
DÄNENSTR. / SCHÖNFLIEßER STR.,1,2015,15,13.4079805,52.5499608,4606154-4606156
DÄNENSTR. / SCHÖNHAUSER ALLEE / SCHÖNHAUSER-ALLEE-BRÜCKE,2,2015,15,13.4135635,52.5496608,4606156-4615362
DANZIGER STR.,6,2015,15,13.4315487718435,52.5365644605648,4615031
DANZIGER STR. / DUNCKERSTR.,3,2015,15,13.4186521,52.5401464,4615031-4631543
DANZIGER STR. / EBERSWALDER STR. / KASTANIENALLEE / PAPPELALLEE / SCHÖNHAUSER AL,7,2015,15,13.412028900000001,52.540902933333335,4068019-4615031-4631472-30859067
DANZIGER STR. / KNAACKSTR. / LYCHENER STR.,1,2015,15,13.414327100000001,52.540680550000005,4606259-4615031-4631449
DANZIGER STR. / KOLLWITZSTR. / SENEFELDERSTR.,1,2015,15,13.421580800000001,52.5395472,4606258-4615031-8150009
DUNCKERSTR.,2,2015,15,13.4238743,52.5459475,4631543
DUNCKERSTR. / ERICH-WEINERT-STR.,1,2015,15,13.4263094,52.5486082,4615321-4631543
DUNCKERSTR. / STARGARDER STR.,1,2015,15,13.4226621,52.5446022,4631543-11114396
DUNCKERSTR. / WICHERTSTR.,2,2015,15,13.4247315,52.5468988,4631543-8658090
DUNCKERSTR. / WISBYER STR.,2,2015,15,13.4289587,52.5514749,4068093-4631543
EBERSWALDER STR.,6,2015,15,13.4087317518757,52.5413260163318,4631472
EBERSWALDER STR. / EBERSWALDER STR.,1,2015,15,13.4087317518757,52.5413260163318,4631472
ERICH-WEINERT-STR. / MEYERHEIMSTR.,1,2015,15,13.4274166,52.5482585,4615321-4631551
ERICH-WEINERT-STR. / PRENZLAUER ALLEE,2,2015,15,13.4287765,52.5477669,4484427-4615321
ERICH-WEINERT-STR. / SCHÖNHAUSER ALLEE / PAUL-ROBESON-STR.,2,2015,15,13.414189700000001,52.55208465,4606152-4615321-4615362
ERICH-WEINERT-STR. / STAHLHEIMER STR.,2,2015,15,13.4220604,52.5500662,4615321-10596628
FEHRBELLINER STR. / SCHÖNHAUSER ALLEE,5,2015,15,13.4110131,52.5305559,4615362-41927001
GAUDYSTR.,1,2015,15,13.4094802614539,52.5462313325984,4631474
GLEIMSTR.,3,2015,15,13.404168165442,52.5468649072368,4606142
GLEIMSTR. / AM FALKPLATZ / YSTADER STR.,1,2015,15,13.4054797,52.5469899,4606142-4631475-38286452
GLEIMSTR. / SCHÖNHAUSER ALLEE / STARGARDER STR.,2,2015,15,13.413405000000001,52.547653749999995,4606142-4615362-11114396
GLEIMTUNNEL / GLEIMSTR. / SCHWEDTER STR.,1,2015,15,13.4003205,52.5465267,4606142-4606228-31349228
GNEISTSTR. / SCHÖNHAUSER ALLEE,2,2015,15,13.41273,52.5444158,4606274-4615362
GREIFENHAGENER STR.,1,2015,15,13.416663,52.54913,8039003
GREIFENHAGENER STR. / WICHERTSTR.,1,2015,15,13.4172306,52.5498272,8039003-8658090
GRELLSTR. / PRENZLAUER ALLEE / WICHERTSTR.,5,2015,15,13.427702275,52.545697625,4484427-4615322-8658090
GUDVANGER STR. / TALSTR. / WISBYER STR.,4,2015,15,13.4273235,52.5524274,4068093-4631541-4631716
KANZOWSTR. / PRENZLAUER ALLEE,1,2015,15,13.4273368,52.5449328,4484427-4631549
KASTANIENALLEE,6,2015,15,13.4082748580018,52.5372076627005,4068019
KASTANIENALLEE / ODERBERGER STR.,4,2015,15,13.4097144,52.5385713,4068019-31352223
KNAACKSTR.,2,2015,15,13.4165640341128,52.5358787377367,4606259
KNAACKSTR. / KOLLWITZSTR.,1,2015,15,13.4169346,52.5353375,4606258-4606259
KOLLWITZSTR. / METZER STR.,1,2015,15,13.4135925,52.5323515,4606258-23121446
KOLLWITZSTR. / SREDZKISTR.,3,2015,15,13.4200707,52.5381954,4606258-4606260
KOPENHAGENER STR.,1,2015,15,13.4070940818112,52.5489754205495,23985869
KUGLERSTR. / MEYERHEIMSTR.,1,2015,15,13.4283694,52.5494433,4631551-173017291
KUGLERSTR. / PRENZLAUER ALLEE,1,2015,15,13.4291574,52.5491968,4484427-173017291
KUGLERSTR. / STAHLHEIMER STR.,1,2015,15,13.4231992,52.551118,10596628-173017291
KURZE STR. / SCHERENBERGSTR. / WISBYER STR.,3,2015,15,13.422199200000001,52.552843225000004,4068093-4631535-75743336
LOTTUMSTR. / SCHÖNHAUSER ALLEE,2,2015,15,13.4102885,52.5298268,4615362-180331460
LYCHENER STR.,2,2015,15,13.4177448763595,52.5438460558805,4631449
LYCHENER STR. / RAUMERSTR.,1,2015,15,13.4171653,52.543325,4606273-4631449
METZER STR. / SCHÖNHAUSER ALLEE / SCHWEDTER STR. / SENEFELDERPLATZ,2,2015,15,13.4125997,52.53262,4606228-4615362-23121446
NEUMANNSTR. / STAHLHEIMER STR. / WISBYER STR.,5,2015,15,13.424475650000002,52.552509799999996,4068093-4631542-10596628
OSTSEESTR. / PRENZLAUER ALLEE / PRENZLAUER PROMENADE / WISBYER STR.,7,2015,15,13.430462483333335,52.550874883333336,4068093-4484351-4484427-4615358
PAPPELALLEE,8,2015,15,13.4158415711277,52.5442754727623,30859067
PAPPELALLEE / STARGARDER STR.,3,2015,15,13.4182573,52.5465186,11114396-30859067
PAUL-ROBESON-STR.,2,2015,15,13.4085635544406,52.552562220829,4606152
PRENZLAUER ALLEE,3,2015,15,13.4240083929993,52.5390482381703,4484427
PRENZLAUER ALLEE / ZELTERSTR.,1,2015,15,13.4277297,52.5466751,4484427-4631552
RAUMERSTR.,1,2015,15,13.4201882656588,52.542087504285,4606273
RAUMERSTR. / SENEFELDERSTR.,1,2015,15,13.4228168,52.5414966,4606273-8150009
SCHIVELBEINER STR.,3,2015,15,13.4088413005187,52.5510888634599,8658097
SCHÖNFLIEßER STR. / PAUL-ROBESON-STR.,1,2015,15,13.4084497,52.5525716,4606152-4606154
SCHÖNFLIEßER STR. / SCHIVELBEINER STR.,1,2015,15,13.4081809,52.550972,4606154-8658097
SCHÖNHAUSER ALLEE,23,2015,15,13.4123264720408,52.5410759747207,4615362
SCHÖNHAUSER ALLEE / WICHERTSTR. / SCHIVELBEINER STR.,6,2015,15,13.414103350000001,52.55063105,4615362-8658090-8658097
SCHWEDTER STR.,4,2015,15,13.4050284833094,52.5390712778137,4606228
SEELOWER STR. / SCHIVELBEINER STR.,1,2015,15,13.4104115,52.550801,4606155-8658097
SREDZKISTR.,1,2015,15,13.4177163788601,52.5383203440664,4606260
STAHLHEIMER STR.,3,2015,15,13.4222642597039,52.550249274381,10596628
STARGARDER STR.,5,2015,15,13.4200191977061,52.5457323341635,11114396
STAVANGERSTR.,1,2015,15,13.4104456068093,52.5565075087124,4782311
TRELLEBORGER STR. / WISBYER STR.,3,2015,15,13.4184382,52.5534626,4068093-123943333
WICHERTSTR.,4,2015,15,13.4209942128837,52.5485161558465,8658090
WISBYER STR.,3,2015,15,13.4223449254754,52.5527585200274,4068093
ZIONSKIRCHSTR.,1,2015,15,13.4047813,52.5341291,4606213
OTTO-BRAUN-STR. / BARNIMSTR.,1,2015,16,13.4217874,52.526498,4615403-4790833
AM FRIEDRICHSHAIN,1,2015,16,13.4303381,52.5289556,4615058
AM FRIEDRICHSHAIN / AM FRIEDRICHSHAIN,1,2015,16,13.4303381,52.5289556,4615058
AM FRIEDRICHSHAIN / FRIEDENSTR.,2,2015,16,13.4249454,52.5281652,4615058-4615401
AUGUST-LINDEMANN-STR. / NEUE WELT,1,2015,16,13.4635994,52.5223106,25091968-127621244
BÖTZOWSTR. / HUFELANDSTR.,1,2015,16,13.4335253,52.5312089,4615063-4615066
BÖTZOWSTR. / JOHN-SCHEHR-STR.,1,2015,16,13.4389845,52.5354734,4615066-4615212
CHODOWIECKISTR. / PRENZLAUER ALLEE,1,2015,16,13.4239253,52.5384065,4484427-4615030
CHRISTBURGER STR. / GREIFSWALDER STR. / PASTEURSTR.,1,2015,16,13.4310695,52.534472750000006,4615028-4615034-4615064
CHRISTBURGER STR. / PRENZLAUER ALLEE / SREDZKISTR.,2,2015,16,13.4230406,52.537172049999995,4484427-4606260-4615028
CONRAD-BLENKLE-STR.,2,2015,16,13.446885681334,52.5309029217254,8084121
DANZIGER STR.,11,2015,16,13.4315487718435,52.5365644605648,4615031
DANZIGER STR. / BÖTZOWSTR.,1,2015,16,13.4373733,52.5342767,4615031-4615066
DANZIGER STR. / ELLA-KAY-STR.,1,2015,16,13.4284983,52.5378608,4615031-4615075
DANZIGER STR. / ERICH-BOLTZE-STR. / MARGARETE-SOMMER-STR.,3,2015,16,13.442495775000001,52.53129905,4615031-4615467-8084123
DANZIGER STR. / GREIFSWALDER STR.,2,2015,16,13.43288085,52.5362311,4615031-4615034
DANZIGER STR. / PAUL-HEYSE-STR.,1,2015,16,13.44432595,52.5295072,4615031-8084125
DANZIGER STR. / PRENZLAUER ALLEE,11,2015,16,13.4240352,52.5390943,4484427-4615031
DANZIGER STR. / RUDI-ARNDT-STR.,1,2015,16,13.4454564,52.5286393,4615031-8084126
DIEDENHOFER STR. / KNAACKSTR.,1,2015,16,13.4181405,52.5348006,4606259-147657122
DIESTERWEGSTR. / PRENZLAUER ALLEE / STARGARDER STR.,5,2015,16,13.42651105,52.54293605,4484427-4615074-11114396
DIETRICH-BONHOEFFER-STR.,1,2015,16,13.43435475,52.5343677,4615068
EINSTEINSTR.,1,2015,16,13.4483515247594,52.538916918445,4787420
ERICH-WEINERT-STR.,3,2015,16,13.4279058063883,52.5480794389265,4615321
ERICH-WEINERT-STR. / GREIFSWALDER STR. / THOMAS-MANN-STR.,3,2015,16,13.44142395,52.54337755,4615034-4615321-4787423
ERICH-WEINERT-STR. / GUBITZSTR.,1,2015,16,13.434201,52.5458914,4615321-4615324
ERICH-WEINERT-STR. / HOSEMANNSTR.,2,2015,16,13.4368505,52.5449613,4068003-4615321
FRITZ-RIEDEL-STR. / PAUL-HEYSE-STR.,1,2015,16,13.4486092,52.5310769,8084125-8084128
FRÖBELSTR. / PRENZLAUER ALLEE / RAUMERSTR.,4,2015,16,13.42528695,52.54095945,4484427-4606273-161755129
GOETHESTR. / OSTSEESTR.,3,2015,16,13.4345035,52.5496172,4615358-4631756
GREIFSWALDER STR.,15,2015,16,13.4355719493403,52.5381632636336,4615034
GREIFSWALDER STR. / GRELLSTR. / STORKOWER STR.,5,2015,16,13.43876875,52.54128765,4615034-4615322-4685621
GREIFSWALDER STR. / HEINRICH-ROLLER-STR.,2,2015,16,13.4253906,52.5297702,4615001-4615034
GREIFSWALDER STR. / HUFELANDSTR. / MARIENBURGER STR.,4,2015,16,13.4295586,52.5329862,4615007-4615034-4615063
GREIFSWALDER STR. / IMMANUELKIRCHSTR.,2,2015,16,13.4272821,52.5314278,4615006-4615034
GREIFSWALDER STR. / MICHELANGELOSTR. / OSTSEESTR.,5,2015,16,13.445099500000001,52.5453622,4615034-4615358-4685619
GREIFSWALDER STR. / SCHIERITZSTR.,1,2015,16,13.442675,52.5446086,4615034-4615332
GRELLSTR.,2,2015,16,13.4331942395595,52.543472003911,4615322
GRELLSTR. / HOSEMANNSTR.,6,2015,16,13.4348295,52.5428684,4068003-4615322
GRELLSTR. / PREUßSTR.,1,2015,16,13.4335438,52.543344,4615322-44289189
GUBITZSTR. / OSTSEESTR.,3,2015,16,13.43673,52.5487537,4615324-4615358
HANNS-EISLER-STR.,1,2015,16,13.4489821021249,52.5429472743681,9709362
HERMANN-BLANKENSTEIN-STR.,1,2015,16,13.4617893138341,52.5242349181427,8428399
HERMANN-BLANKENSTEIN-STR. / AUGUST-LINDEMANN-STR. / FGB STORKOWER STR.,1,2015,16,13.4642498,52.5236458,8428399-127621244
HERMANN-BLANKENSTEIN-STR. / RICHARD-ERMISCH-STR.,1,2015,16,13.4611166,52.5243964,8428399-127621246
HERMANN-BLANKENSTEIN-STR. / THAERSTR. / THAERSTRAßENBRÜCKE,2,2015,16,13.45827705,52.5255979,8428399-28197508-151128678
HOHENSCHÖNHAUSER STR. / MAIGLÖCKCHENSTR. / ODERBRUCHSTR. / HERBERT-TSCHÄPE-STR,1,2015,16,13.4630581,52.53233409999999,4687243-4687248-4687257-8115416
HOSEMANNSTR. / OSTSEESTR.,3,2015,16,13.439320500000001,52.5475359,4068003-4615358
HOSEMANNSTR. / SCHIERITZSTR.,1,2015,16,13.4381551,52.5463256,4068003-4615332
IMMANUELKIRCHSTR.,1,2015,16,13.423631992444,52.5326924008875,4615006
IMMANUELKIRCHSTR. / KNAACKSTR. / PRENZLAUER ALLEE,1,2015,16,13.420879675,52.5336304,4484427-4606259-4615006
IMMANUELKIRCHSTR. / WINSSTR.,1,2015,16,13.4240885,52.5325365,4615004-4615006
JABLONSKISTR.,1,2015,16,13.4275655000763,52.5364358423499,4615029
JAMES-HOBRECHT-STR. / NEUE WELT,1,2015,16,13.4676759,52.521571,4685732-25091968
JOHN-SCHEHR-STR.,2,2015,16,13.439065954344,52.5354326928414,4615212
KNIPRODESTR.,1,2015,16,13.4470645775215,52.5357396061029,4631872
KNIPRODESTR. / ALTENESCHER WEG,1,2015,16,13.4542699,52.540235,4631872-4687333
KNIPRODESTR. / AM FRIEDRICHSHAIN / HUFELANDSTR. / VIRCHOWSTR.,1,2015,16,13.437176216666666,52.529616016666665,4615058-4615063-4615460-4631872
KNIPRODESTR. / CONRAD-BLENKLE-STR.,1,2015,16,13.4437904,52.5336547,4631872-8084121
KNIPRODESTR. / MICHELANGELOSTR.,1,2015,16,13.45529955,52.541325650000005,4631872-4685619
KNIPRODESTR. / STEDINGERWEG / HANNS-EISLER-STR.,1,2015,16,13.4526167,52.5391959,4631872-4687336-9709362
KNIPRODESTR. / STORKOWER STR.,4,2015,16,13.44954985,52.5372009,4631872-4685621
LANDSBERGER ALLEE,1,2015,16,13.5050511607437,52.5359677482543,4615457
LILLI-HENOCH-STR.,1,2015,16,13.4346806219132,52.5401524436372,4615078
MAIGLÖCKCHENSTR. / SYRINGENPLATZ / SYRINGENWEG,1,2015,16,13.4584348,52.5332645,8115415-8115416-29212660
MANDELSTR.,1,2015,16,13.4429669409526,52.5469186399752,4615335
MANDELSTR. / OSTSEESTR.,3,2015,16,13.443891,52.5459138,4615335-4615358
MARIENBURGER STR.,2,2015,16,13.4256240392613,52.5343803867478,4615007
MARIENBURGER STR. / PRENZLAUER ALLEE / WÖRTHER STR.,1,2015,16,13.4221015,52.53558405,4484427-4606261-4615007
METZER STR. / PRENZLAUER ALLEE,1,2015,16,13.4189884,52.5307018,4484427-23121446
MICHELANGELOSTR. / HANNS-EISLER-STR.,2,2015,16,13.4534352,52.5421271,4685619-9709362
MÜLHAUSER STR. / PRENZLAUER ALLEE,1,2015,16,13.4203155,52.5327715,4484427-45234635
NEUE WELT,1,2015,16,13.4656371813139,52.5219383514385,25091968
ODERBRUCHSTR. / KARL-LADE-STR. / LANDSBERGER ALLEE,1,2015,16,13.4611299,52.5295053,4615457-4687155-4687257
OSTSEESTR.,2,2015,16,13.4372559750009,52.5485456338336,4615358
OSTSEESTR. / SÜLTSTR.,1,2015,16,13.43391945,52.54967805,4615325-4615358
OTTO-BRAUN-STR.,2,2015,16,13.4201775735151,52.5251683759866,4790833
OTTO-BRAUN-STR. / AM FRIEDRICHSHAIN / GREIFSWALDER STR. / PRENZLAUER BERG / PLAT,1,2015,16,13.423786333333332,52.528215100000004,4614987-4615034-4615058-4790833
PRENZLAUER ALLEE,11,2015,16,13.4240083929993,52.5390482381703,4484427
PRENZLAUER ALLEE / PRENZLAUER BERG / SAARBRÜCKER STR.,2,2015,16,13.4171762,52.5284555,4484427-4606254-4614987
SCHNEEGLÖCKCHENSTR.,1,2015,16,13.4604060707322,52.5321975473017,4687297
STORKOWER STR.,10,2015,16,13.456352933281,52.530299409385,4685621
STORKOWER STR. / LANDSBERGER ALLEE,4,2015,16,13.4576248,52.5290251,4615457-4685621
STORKOWER STR. / SYRINGENWEG,2,2015,16,13.455839,52.5307922,4685621-29212660
SYRINGENPLATZ,1,2015,16,13.4583402619961,52.5344956385813,8115415
WINSSTR.,3,2015,16,13.4256856254053,52.534265495119,4615004
ZUR RINDERAUKTIONSHALLE,1,2015,16,13.4622646792745,52.523054431841,129207713
ALTSTÄDTER RING,1,2015,21,13.2005125013,52.5377804059737,4453034
ALTSTÄDTER RING / CARL-SCHURZ-STR. / KLOSTERSTR. / SEEGEFELDER STR. / STABHOLZGA,1,2015,21,13.199705899526199,52.53478106920259,4453033-4453034-4804139-5043207
ALTSTÄDTER RING / FALKENSEER PLATZ,1,2015,21,13.2025967,52.5402039,4453034-37535101
ALTSTÄDTER RING / MORITZSTR.,2,2015,21,13.2006263,52.538649,4453034-4804146
AM BAHNHOF SPANDAU,2,2015,21,13.1949075032031,52.5346198895996,9932925
AM FORSTACKER,1,2015,21,13.2005039277315,52.5637505746216,6073951
AM HÜLLEPFUHL / FALKENSEER CHAUSSEE,1,2015,21,13.1518372,52.5536928,5000791-23382149
AM JULIUSTURM,3,2015,21,13.2180173696261,52.5375601644187,4453035
AM JULIUSTURM / BEHNITZ / BREITE STR.,1,2015,21,13.208281902179674,52.53910630442987,4453035-5095318-24973951
AM JULIUSTURM / CARL-SCHURZ-STR. / HAVELSTR. / HOHER STEINWEG,1,2015,21,13.205619679356252,52.5394644062554,4453035-5043207-5105773-25068094
AM JULIUSTURM / DAUMSTR. / NONNENDAMMALLEE / FERDINAND-FRIEDENSBURG-PLATZ,1,2015,21,13.23213595,52.53914671666667,4453035-4453037-4553267-6238395
AM JULIUSTURM / ZITADELLENWEG,1,2015,21,13.217253150000001,52.5377634,4453035-4804159
AN DER KAPPE,1,2015,21,13.1796109847829,52.5406978299006,5000504
AN DER KAPPE / ZEPPELINSTR.,1,2015,21,13.1832305,52.5398161,4978502-5000504
ASKANIERRING / FALKENSEER DAMM,1,2015,21,13.1947764,52.5453473,4797967-4978497
ASKANIERRING / FLANKENSCHANZE,1,2015,21,13.1970705,52.5418365,4797952-4978497
ASKANIERRING / SCHÖNWALDER STR. / FEHRBELLINER TOR,1,2015,21,13.1988884,52.5540721,4797956-4978497-37535100
BALLERSDORFER STR. / REMSCHEIDER STR.,1,2015,21,13.1752996,52.5464799,5000180-8023789
BEERWINKEL / FALKENSEER CHAUSSEE,1,2015,21,13.162043749999999,52.55178085,5000791-8023538
BREITE STR.,1,2015,21,13.2054592111359,52.53694072809,5095318
CAUTIUSSTR. / STREITSTR.,1,2015,21,13.2083909,52.5619948,4978510-18830950
DALLGOWER STR. / PETZOLDTWEG / SEEGEFELDER STR.,1,2015,21,13.1874348,52.5375395,4804139-5000497-24029338
DAUMSTR.,1,2015,21,13.2277557871033,52.5492051414413,4553267
DAUMSTR. / GARTENFELDER STR. / TELEGRAFENWEG,1,2015,21,13.232421949999999,52.540652025,4553267-4581852-4752730
DAUMSTR. / RHENANIASTR.,2,2015,21,13.2258183,52.5544632,4553267-4581884
ECKSCHANZE / FEHRBELLINER STR. / STADTHEIDESTR.,1,2015,21,13.19815055,52.5517204,4797979-4978494-5216360
EISWERDERSTR. / NEUENDORFER STR.,2,2015,21,13.2098034,52.5479081,4797965-5068026
ELISABETHSTR. / SCHÖNWALDER STR.,1,2015,21,13.2023362,52.5465516,4797958-37535100
ESCHENWEG / NIEDERNEUENDORFER ALLEE,1,2015,21,13.2110845,52.5683367,4978666-5011317
FALKENHAGENER TOR / HOHENZOLLERNRING / PIONIERSTR.,4,2015,21,13.191780010888776,52.54934879141598,4797951-23381500-23409830
FALKENSEER CHAUSSEE,4,2015,21,13.1721363732919,52.5499588369817,5000791
FALKENSEER CHAUSSEE / AM BOGEN,1,2015,21,13.158065991287451,52.55226263513795,5000791-24036553
FALKENSEER CHAUSSEE / FRANKENWALDSTR. / MÜLHEIMER STR.,2,2015,21,13.1718031,52.5498875,5000168-5000791-8023535
FALKENSEER CHAUSSEE / HOHENZOLLERNRING,2,2015,21,13.1915574,52.5462385,5000791-23409830
FALKENSEER CHAUSSEE / SIEGENER STR. / WESTERWALDSTR.,2,2015,21,13.1780611,52.5487105,4978504-5000127-5000791
FALKENSEER CHAUSSEE / STADTRANDSTR.,2,2015,21,13.15351735,52.5534248,5000791-5025940
FALKENSEER CHAUSSEE / STEIGERWALDSTR.,1,2015,21,13.182959,52.5479311,5000791-23410054
FALKENSEER CHAUSSEE / WASSERWERKSTR. / AM KIESTEICH,1,2015,21,13.1654151,52.5512219,4884672-5000791-8023536
FALKENSEER CHAUSSEE / ZWEIBRÜCKER STR.,1,2015,21,13.1888144,52.5468192,4978505-5000791
FALKENSEER DAMM,1,2015,21,13.1985862780141,52.5429307489429,4797967
FALKENSEER DAMM / FALKENSEER PLATZ,2,2015,21,13.2032196,52.540827,4797967-37535101
FALKENSEER DAMM / FLANKENSCHANZE,1,2015,21,13.1986027,52.5429207,4797952-4797967
FISCHERSTR. / KAMMERSTR.,1,2015,21,13.2068555,52.5372477,24041375-24969046
FLANKENSCHANZE,1,2015,21,13.198066306857,52.5425992957634,4797952
FRANKENWALDSTR.,1,2015,21,13.173169878992,52.5521377289829,8023535
FREIHEIT,1,2015,21,13.2230764225421,52.5306864598576,5095383
FREIHEIT / AM SCHLANGENGRABEN,1,2015,21,13.2117276,52.53211485,5095383-5363316
FREIHEIT / SCHÜRSTR. / STRESOWSTR.,1,2015,21,13.20779347655905,52.53270511765737,5095381-5095383-24035220
FÜRSTENWEG / HOHENZOLLERNRING / RADELANDSTR.,1,2015,21,13.1958059,52.5551874,23409830-31587688-179465006
GALENSTR.,2,2015,21,13.1974985999854,52.5387234050982,4804144
GALENSTR. / HOHENZOLLERNRING / MÜNSINGER PARK,1,2015,21,13.1971201,52.5383645,4804144-23409830
GALENSTR. / KEMMANNWEG / MÜNSINGER PARK,2,2015,21,13.1958168,52.5366707,4804144-24480788
GALENSTR. / SEEGEFELDER STR. / AM BAHNHOF SPANDAU,1,2015,21,13.1952846,52.5354903,4804139-4804144-9932925
GARTENFELDER STR.,4,2015,21,13.2427157928946,52.5436685475004,4581852
GARTENFELDER STR. / PAULSTERNSTR.,1,2015,21,13.2469803,52.5440841,4581852-4581878
GARTENFELDER STR. / RIENSBERGSTR.,1,2015,21,13.2416178,52.5433805,4581852-24033321
GOLTZSTR.,1,2015,21,13.213268765766,52.5618507229671,19852521
GOLTZSTR. / RAUCHSTR.,1,2015,21,13.2125282,52.5610812,4978664-19852521
GRIESINGERSTR. / STADTRANDSTR.,1,2015,21,13.15677,52.5595277,5025932-5025940
GÜTERSLOHER WEG,1,2015,21,13.17124745,52.54688595,5000162
HAACKZEILE,1,2015,21,13.1671560784798,52.5519837246008,37229268
HAKENFELDER STR.,1,2015,21,13.2018115169683,52.5658164732617,4978670
HOHENZOLLERNRING,3,2015,21,13.1938536617894,52.5533825898001,23409830
HOHENZOLLERNRING / WANSDORFER STEIG,1,2015,21,13.2050837,52.555661,22956608-23409830
HOSPITALSTR.,1,2015,21,13.19799715,52.54901245,25309448
HÜGELSCHANZE / SCHÖNWALDER STR.,1,2015,21,13.2007695,52.5486613,4797960-37535100
HUGO-CASSIRER-STR.,1,2015,21,13.2184000898209,52.5577793023509,4581880
JAGOWSTR.,1,2015,21,13.2063149123175,52.5470948830964,4804155
JANISCHWEG / STRAßE AM SCHALTWERK,1,2015,21,13.259958,52.5415115,30215766-126207005
JUNGFERNHEIDEWEG / NONNENDAMMALLEE / REISSTR. / SIEMENSDAMM,1,2015,21,13.2718315,52.53649529999999,4453037-4453038-4588801-4588808
KAPELLENSTEIG / NONNENDAMMALLEE,1,2015,21,13.2656627,52.5368159,4453037-24389263
KISSELNALLEE / PIONIERSTR. / ZEPPELINSTR. (ENDE),1,2015,21,13.185487525,52.551508600000005,4978501-4978502-23381500
KRAEPELINWEG,1,2015,21,13.1518352902148,52.5549579872594,23382138
KÜSTERSTR. / SAATWINKLER DAMM,1,2015,21,13.2429959,52.5469182,4484020-23389941
LÜDENSCHEIDER WEG,1,2015,21,13.2343863740025,52.545994169528,19898264
LYNARSTR. / NEUENDORFER STR.,1,2015,21,13.2102652,52.5489947,4797965-4978512
MÖGELDORFER WEG / SCHWENDYWEG,1,2015,21,13.20425988669615,52.55926236980705,5026126-22956617
MORITZSTR.,2,2015,21,13.2006263,52.538649,4804146
MOTARDSTR.,1,2015,21,13.2568976039904,52.5347791495553,4553259
NAUENER STR. / SEEGEFELDER STR. / ZEPPELINSTR.,1,2015,21,13.182372699999998,52.538395300000005,4804139-4978502-23968027
NEUE BERGSTR. / NEUENDORFER STR.,1,2015,21,13.2098149,52.550596,4797965-5037124
NEUENDORFER STR.,3,2015,21,13.2086925065894,52.5459892394374,4797965
NEUENDORFER STR. / FALKENSEER PLATZ,1,2015,21,13.2041596,52.5404199,4797965-37535101
NIEDERNEUENDORFER ALLEE / NIEDERNEUENDORFER ALLEE,1,2015,21,13.2100360697765,52.5787053906664,4978666
NONNENDAMMALLEE,7,2015,21,13.251986061175,52.5379220374018,4453037
NONNENDAMMALLEE / QUELLWEG,1,2015,21,13.2683811,52.5365648,4453037-4588800
RAUCHSTR.,2,2015,21,13.2149614677031,52.5607572678117,4978664
RAUCHSTR. / ASHDODSTR.,2,2015,21,13.2198347,52.5601667,4978664-18833000
REISSTR.,1,2015,21,13.2709111819813,52.5345683296379,4588801
REISSTR. / WERNERWERKDAMM,1,2015,21,13.2711337,52.534978,4588799-4588801
RHENANIASTR.,2,2015,21,13.2320724808126,52.5523118466591,4581884
ROHRDAMM,3,2015,21,13.263758660994,52.5389967428757,4553257
ROHRDAMM / WERNERWERKDAMM,2,2015,21,13.2655688,52.5355265,4553257-4588799
SCHÖNWALDER STR.,2,2015,21,13.2013881794012,52.5476257323193,37535100
SCHULZENSTR. / SEEGEFELDER STR.,1,2015,21,13.1782254,52.5392012,4804139-8023816
SEEGEFELDER STR.,3,2015,21,13.1835674031412,52.5382596709304,4804139
SPANDAUER DAMM / WIESENDAMM,3,2015,21,13.2474024,52.5244041,4421114-4588812
STEIGERWALDSTR.,1,2015,21,13.1839799580541,52.5498640956381,23410054
STRESOWSTR.,2,2015,21,13.2067271278846,52.5338316935928,5095381
TELTOWER STR.,1,2015,21,13.217088391272,52.5261094549157,4498110
WATTSTR.,1,2015,21,13.2666088716842,52.53656503658,24389258
WESTERWALDSTR.,1,2015,21,13.1780829438869,52.5511135483139,4978504
WICHERNSTR.,1,2015,21,13.2059244710383,52.5674787922867,5011319
WIESENDAMM,1,2015,21,13.2445946096883,52.5277917200259,4588812
WOBLITZSEEWEG,1,2015,21,13.22870205,52.55442675,30100894
ZEPPELINSTR.,1,2015,21,13.1842775724585,52.5453644559804,4978502
ZEPPELINSTR. / SPEKTEWEG,1,2015,21,13.1834236,52.5414569,4978502-5000177
ZITADELLENWEG,1,2015,21,13.2185648139039,52.5389862973407,4804159
AHORNALLEE,1,2015,22,13.2759921631407,52.5140680249568,4480544
ALTENBURGER ALLEE,1,2015,22,13.2598969709818,52.5189076612084,4515872
AM RUPENHORN / GLOCKENTURMSTR. / HEERSTR.,2,2015,22,13.21828065,52.50883175,4068033-4555235-4694837
ANGERBURGER ALLEE / GLOCKENTURMSTR.,1,2015,22,13.2216702,52.5111171,4469398-4555235
CORDESSTR. / EICHKAMPSTR. / WALDSCHULALLEE,1,2015,22,13.2701282,52.497365450000004,4422233-5173207-14357390
EBERESCHENALLEE / LINDENALLEE,1,2015,22,13.2738042,52.5146959,4515881-24837181
EICHKAMPSTR.,2,2015,22,13.2645152029774,52.4926809973568,4422233
EICHKAMPSTR. / AM DORNBUSCH,1,2015,22,13.264683936718408,52.49246925178456,4422233
ESCHENALLEE / LÄNDERALLEE / REICHSSTR.,3,2015,22,13.266173299999998,52.513014025,4068090-4515876-24837179
FREDERICIASTR. / KÖNIGIN-ELISABETH-STR.,1,2015,22,13.2815479,52.5109738,4446509-4609230
FÜRSTENBRUNNER WEG,1,2015,22,13.2774766533039,52.5267175400461,4453040
FÜRSTENBRUNNER WEG / KÖNIGIN-ELISABETH-STR. / SPANDAUER DAMM,3,2015,22,13.28012825,52.51838445,4421114-4446509-4453040
GLOCKENTURMSTR.,1,2015,22,13.2241283,52.5124607,4555235
GOEBELSTR. / JUNGFERNHEIDEWEG,1,2015,22,13.2726197,52.5393079,4581849-4588808
HALENSEESTR.,1,2015,22,13.2816702742592,52.4989830723647,4389573
HALENSEESTR. / A 115 BAB AUTOBAHNZUBRINGER MAGDEBG/LEIPZ (AVUS) / 115 AD FUNKTUR,1,2015,22,13.281733268308951,52.49904249146616,4389573
"HALENSEESTR. / MESSEDAMM / A 100 BAB / 100 AD FUNKTURM AUSFAHRT N MESSEDAMM,HALE",3,2015,22,13.279098099999999,52.50351395,4068031-4389573
HECKERDAMM,1,2015,22,13.2944944597828,52.5396464611414,4068114
HEERSTR.,8,2015,22,13.2083660966373,52.5107362463224,4068033
HEERSTR. / INSTERBURGALLEE,1,2015,22,13.25418745,52.508279599999995,4068033-4616170
HEERSTR. / KRANZALLEE / FLATOWALLEE,2,2015,22,13.24211875,52.5073879,4068033-4474844-5077525
HEERSTR. / MOHRUNGER ALLEE / ORTELSBURGER ALLEE,2,2015,22,13.249640750000001,52.50807735,4068033-8080584-20163418
HEERSTR. / PILLKALLER ALLEE,1,2015,22,13.2510402,52.5082781,4068033-8080585
HEERSTR. / PREUßENALLEE,1,2015,22,13.2593295,52.5086552,4068033-4604840
HEERSTR. / RAGNITER ALLEE,1,2015,22,13.23538895,52.507121749999996,4068033-4588824
HEILMANNRING,2,2015,22,13.2857107679181,52.5351610235934,4068083
HEILMANNRING / HECKERDAMM,1,2015,22,13.2911948,52.5397406,4068083-4068114
HESSENALLEE / PREUßENALLEE / WÜRTTEMBERGALLEE,1,2015,22,13.259648784051375,52.512509183448955,4604840-4604842-24837198
JAFFÉSTR. / MESSEDAMM,1,2015,22,13.2721791,52.4988077,4067883-4068031
JAFFÉSTR. / MESSEDAMM / MESSEDAMMBRÜCKE,1,2015,22,13.2721791,52.4988077,4067883-4068031
KAISERDAMM,1,2015,22,13.285267096127,52.5101429405904,4436950
KAISERDAMM / KÖNIGIN-ELISABETH-STR. / MESSEDAMM,8,2015,22,13.281858849999999,52.50999875,4068031-4436950-4446509
KAISERDAMM / MEERSCHEIDTSTR.,1,2015,22,13.2797346,52.50986505,4436950-4609228
KAISERDAMM / SOORSTR.,1,2015,22,13.2777464,52.509808,4436950-4609226
KIRSCHENALLEE,1,2015,22,13.2657769772953,52.517368235688,111861869
KIRSCHENALLEE / SPANDAUER DAMM,1,2015,22,13.2671757,52.520288,4421114-111861869
KNOBELSDORFFSTR. / KÖNIGIN-ELISABETH-STR.,2,2015,22,13.2815352,52.5128351,4446509-4515856
KNOBELSDORFFSTR. / PLATANENALLEE / SOORSTR.,1,2015,22,13.2766855,52.5125927,4515856-4515867-4609226
KÖNIGIN-ELISABETH-STR.,4,2015,22,13.2811392752399,52.514176541786,4446509
KURT-SCHUMACHER-DAMM / HECKERDAMM / A 111 BAB AUTOBAHNZUBRINGER HAMBURG / WELTLI,2,2015,22,13.2953739,52.5396189,4068114-4484026
LETTERHAUSWEG / NIKOLAUS-GROß-WEG / SIEMENSDAMM / A 100 BAB / 100 AD CHARLOTTENB,1,2015,22,13.2824049,52.5338376,4068159-4453038-4581857
LÖTZENER ALLEE / NEIDENBURGER ALLEE / SOLDAUER ALLEE / SOLDAUER PLATZ,1,2015,22,13.258286875,52.507096425,4694629-4694630-4694631
MASURENALLEE / MESSEDAMM / NEUE KANTSTR.,3,2015,22,13.280321,52.506449525,4068031-4068095-4396009
MAX-DOHRN-STR. / TEGELER WEG,1,2015,22,13.2960009,52.5304282,4446635-4446677
MEERSCHEIDTSTR.,1,2015,22,13.2797591936354,52.5097447461633,4609228
MEININGENALLEE / SPANDAUER DAMM,1,2015,22,13.259179,52.5217343,4421114-4579698
MESSEDAMM,1,2015,22,13.2792476849765,52.5041748398956,4068031
NEIDENBURGER ALLEE,1,2015,22,13.2592046863518,52.5048910810352,4694629
OLYMPISCHE STR.,1,2015,22,13.2544308496325,52.5160133010616,4067882
PLATANENALLEE,1,2015,22,13.2700096410461,52.5137059304487,4515867
REICHSSTR.,2,2015,22,13.2607674767743,52.5163929603373,4068090
REICHSSTR. / SPANDAUER DAMM,1,2015,22,13.2492623,52.5238815,4068090-4421114
RUHWALDWEG,1,2015,22,13.2598302466466,52.5261285652547,23147598
RUHWALDWEG / SPANDAUER DAMM,1,2015,22,13.24826135,52.52425835,4421114-23147598
SAATWINKLER DAMM / A 111 BAB AUTOBAHNZUBRINGER HAMBURG / 111 AS SAATWINKLER D,1,2015,22,13.289817934996732,52.54716921386697,4484020
SAATWINKLER DAMM / A 111 BAB AUTOBAHNZUBRINGER HAMBURG / GENERAL-GANEVAL-BR,1,2015,22,13.289817934996732,52.54716921386697,4484020
SCHAUMBURGALLEE,1,2015,22,13.2563387258078,52.5175132552527,4579705
SCOTTWEG,1,2015,22,13.2350764102558,52.50977147612,4474846
SPANDAUER DAMM,2,2015,22,13.2709317347606,52.519815241401,4421114
TEGELER WEG,1,2015,22,13.2965895954145,52.5284656763478,4446635
TOEPLERSTR.,1,2015,22,13.2830647919641,52.5381687014215,4581847
WALDSCHULALLEE,2,2015,22,13.263754084218,52.5003046130288,14357390
WESTENDALLEE,1,2015,22,13.2553029884289,52.5150101778397,4579702
CHARLOTTENBURGER CHAUSSEE,5,2015,22,13.2306065022834,52.527866039643,24615396
AM BAHNHOF GRUNEWALD,1,2015,22,13.2633702978814,52.4878552886241,4685986
AM POSTFENN / HAVELCHAUSSEE,1,2015,22,13.2098524,52.5009571,4422232-4425425
AUERBACHSTR.,1,2015,22,13.2515647079601,52.4785630447157,25325970
BERNADOTTESTR. / CLAYALLEE / HOHENZOLLERNDAMM,1,2015,22,13.278670975,52.475105,4389171-4517370-4733799
EICHKAMPSTR. / KÖNIGSWEG / AUERBACHTUNNEL,2,2015,22,13.256337,52.4862253,4420987-4422233
FONTANESTR.,1,2015,22,13.2641908758657,52.4851102618698,4623436
FRANZENSBADER STR. / HUBERTUSALLEE,1,2015,22,13.284217550000001,52.4854021,4368310-4396636
HAGENSTR. / HUBERTUSBADER STR. / WILDPFAD,1,2015,22,13.2754926,52.4784316,4434408-4570569-20207501
HAGENSTR. / KRONBERGER STR.,1,2015,22,13.2788229,52.4777611,4434408-4733959
HAGENSTR. / TEPLITZER STR. / ROSENECK (PLATZ),1,2015,22,13.273430525,52.495446924999996,4434408-4486591-27594868
HALENSEESTR.,8,2015,22,13.2816702742592,52.4989830723647,4389573
HALENSEESTR. / WERKSTÄTTENWEG,1,2015,22,13.2816182,52.4979583,4389573-8792775
HAVELCHAUSSEE,1,2015,22,13.200787,52.4857838,4422232
HERTHASTR. / HUBERTUSALLEE / WARMBRUNNER STR.,2,2015,22,13.284362300000002,52.4867558,4396636-4437192-4486573
HOHENZOLLERNDAMM / RHEINBABENALLEE / TEPLITZER STR.,2,2015,22,13.2808761,52.4768137,4389171-4486591-4486595
HUBERTUSALLEE,1,2015,22,13.284478653675,52.4878185977336,4396636
HUBERTUSALLEE / KOENIGSALLEE,1,2015,22,13.285118,52.493952,4396636-4403708
HUBERTUSBADER STR.,1,2015,22,13.2783536712978,52.4806783558789,4570569
KÖNIGSWEG,2,2015,22,13.2462603651788,52.4777445924909,4420987
TEPLITZER STR.,1,2015,22,13.2809621377505,52.4790738583039,4486591
TEUFELSSEECHAUSSEE,1,2015,22,13.2579485537894,52.5082356514319,4616232
ADAMSTR. / JÄGERSTR.,1,2015,23,13.1960775,52.5210298,4609187-4609202
ALTONAER STR. / KLOSTERSTR.,1,2015,23,13.1969258,52.5313633,4453033-9932086
ALTONAER STR. / PÄWESINER WEG,1,2015,23,13.1791385,52.5331215,9932086-9933148
AM ALTEN GASWERK,1,2015,23,13.1301939902715,52.537309315435,28448403
AM HEIDEBERG,1,2015,23,13.1460003497322,52.5428895150178,14362766
AM HEIDEBERG / UNGEWITTERWEG,1,2015,23,13.1455742,52.5434989,14354961-14362766
AM OBERHAFEN / SCHULENBURGSTR. / TIEFWERDERWEG,1,2015,23,13.207851820134225,52.52659188590605,4588818-6073944-25113727
AM OMNIBUSHOF / WILHELMSTR.,1,2015,23,13.1828036,52.5184589,4483961-4868262
BARMBEKER WEG,1,2015,23,13.1541863038381,52.5343572699177,23398382
BARMBEKER WEG / BRUNSBÜTTELER DAMM / HABERLANDWEG,1,2015,23,13.15450765,52.532972900000004,4804140-23398382-24029407
BORKUMER STR. / ELSFLETHER WEG,1,2015,23,13.1933757,52.5328605,9931927-9932079
BRÜDERSTR. / PICHELSDORFER STR.,1,2015,23,13.1976057,52.5236383,4579715-4609208
BRUNSBÜTTELER DAMM,5,2015,23,13.1608333510399,52.5332664189587,4804140
BRUNSBÜTTELER DAMM / AM BAHNHOF SPANDAU,2,2015,23,13.194538,52.5337464,4804140-9932925
BRUNSBÜTTELER DAMM / ELSFLETHER WEG,2,2015,23,13.1938509,52.533759,4804140-9932079
BRUNSBÜTTELER DAMM / KLOSTERSTR. / RUHLEBENER STR.,7,2015,23,13.1985977,52.533041475000005,4453033-4497945-4804140
BRUNSBÜTTELER DAMM / MAGISTRATSWEG,2,2015,23,13.1579351,52.533167649999996,4804140-4999747
BRUNSBÜTTELER DAMM / NENNHAUSER DAMM,1,2015,23,13.1416042,52.5325443,4804140-8023818
BRUNSBÜTTELER DAMM / PRISDORFER STR.,1,2015,23,13.1650762,52.5334337,4804140-8023379
COSMARWEG,1,2015,23,13.1548562087912,52.5256965751754,4999738
COSMARWEG / PFARRER-THEILE-STR.,1,2015,23,13.1470136,52.5272082,4999738-23411689
ELSFLETHER WEG,1,2015,23,13.1927030136107,52.5312813041572,9932079
FALKENSEER CHAUSSEE,1,2015,23,13.1721363732919,52.5499588369817,5000791
FALKENSEER CHAUSSEE / FLURENDE / FREUDSTR.,2,2015,23,13.14941,52.5541349,5000791-23382140-24036261
GATOWER STR.,2,2015,23,13.1799022675065,52.5058243308625,4449164
GATOWER STR. / HEERSTR.,1,2015,23,13.1847506,52.5153413,4068033-4449164
GATOWER STR. / WEINMEISTERHORNWEG,1,2015,23,13.1802846,52.5092018,4449164-4483958
GATOWER STR. / WILHELMSTR.,1,2015,23,13.187148,52.5202494,4449164-4483961
GRUNEWALDSTR. / RUHLEBENER STR.,1,2015,23,13.2047809,52.53008,4497945-4588820
HAUSKAVELWEG / AN DER FELGENLAKE,1,2015,23,13.1542378,52.546709,23382150-24036305
HEERSTR.,3,2015,23,13.2083660966373,52.5107362463224,4068033
HEERSTR. / DÖBERITZER WEG,1,2015,23,13.1292155,52.5271854,4068033-8048604
HEERSTR. / SANDSTR.,1,2015,23,13.1699342,52.518575,4068033-4999754
HEERSTR. / WILHELMSTR.,3,2015,23,13.1790413,52.5166114,4068033-4483961
HOTTENGRUNDWEG / SAKROWER LANDSTR.,1,2015,23,13.1299688,52.4492694,4895109-23045306
KELTERERWEG / WEINMEISTERHORNWEG,1,2015,23,13.187512,52.5081366,4483958-8048758
KLADOWER DAMM,4,2015,23,13.161887403349,52.4645556498024,4895108
KLOSTERSTR.,1,2015,23,13.1975477999326,52.5319060712653,4453033
KLOSTERSTR. / SEEBURGER STR. / WILHELMSTR. / ZIEGELHOF,4,2015,23,13.195652183333332,52.529164083333335,4453033-4483961-9932084-24967135
KRAMPNITZER WEG,1,2015,23,13.1057098063202,52.4541688210034,4898027
KROWELSTR.,1,2015,23,13.1993081348603,52.5249636378798,24026983
KROWELSTR. / SPANDAUER BURGWALL / STRAßBURGER STR.,1,2015,23,13.1966828,52.5274513,5021653-24026983-27355251
MAGISTRATSWEG,1,2015,23,13.1600249444504,52.5279374075197,4999747
METZER STR. / WILHELMSTR.,1,2015,23,13.1939556,52.5254213,4483961-97847806
NENNHAUSER DAMM,1,2015,23,13.1365502,52.5298328,8023818
NENNHAUSER DAMM / HAUPTSTR.,1,2015,23,13.1405104,52.5303467,8023818-23554781
NENNHAUSER DAMM / WEIDENWEG,1,2015,23,13.1384616,52.5285569,8023818-23411727
OBSTALLEE,2,2015,23,13.1664109525559,52.5212353494061,4999742
PARNEMANNWEG,1,2015,23,13.1414071899719,52.4517840749219,10742228
PÄWESINER WEG,1,2015,23,13.1797037242191,52.5297957706861,9933148
PFÄLZISCHE STR.,1,2015,23,13.1802642263407,52.5145032914684,4483960
PICHELSDORFER STR.,1,2015,23,13.1978304717389,52.5215011400781,4579715
PICHELSDORFER STR. / WEVERSTR.,1,2015,23,13.1978089,52.5194664,4579715-4609186
PICHELSWERDERSTR. / RUHLEBENER STR. / SCHULENBURGSTR.,1,2015,23,13.2115279,52.5272918,4497945-4588817-4588818
PILLNITZER WEG / HEERSTR.,1,2015,23,13.1557198,52.5215523,4068033-27484079
POTSDAMER CHAUSSEE / AM LANDSCHAFTSPARK GATOW,1,2015,23,13.1262297,52.4785614,4898661-23133780
RECKEWEG / AM KIESTEICH,1,2015,23,13.158501,52.5438556,4884672-5000125
RECKEWEG / SEEGEFELDER WEG,1,2015,23,13.163643999149201,52.54220852435765,5000125-5000155
RITTERFELDDAMM / SCHWABINGER WEG,1,2015,23,13.1381288,52.4582375,4449163-25514318
SAKROWER LANDSTR.,1,2015,23,13.130613231306,52.449774637219,23045306
SANDSTR.,1,2015,23,13.1687010294657,52.5173730085878,4999754
SCHARFE LANKE,1,2015,23,13.1877621492762,52.5064491928999,24049813
SEEBURGER STR.,1,2015,23,13.1862128668995,52.5272987984017,9932084
SEEBURGER STR. / SEECKTSTR.,1,2015,23,13.1885563,52.5278332,9932084-9932389
SEEGEFELDER WEG,2,2015,23,13.1479859690175,52.5452591551785,5000155
SEEGEFELDER WEG / HAMBURGER STR.,1,2015,23,13.131663,52.5495081,5000155-5008741
SEEGEFELDER WEG / KLOSTERBUSCHWEG / AM KIESTEICH,1,2015,23,13.157854075,52.543075,4884672-4884674-5000155
SPANDAUER BURGWALL,1,2015,23,13.1989959175339,52.5271260008992,5021653
STAAKENER FELDSTR. / MÜHLENBACHRING,1,2015,23,13.1392474,52.5344343,23398442-37770195
STAAKENER STR.,1,2015,23,13.1743263974374,52.5357924866146,24032672
TIEFWERDERWEG,1,2015,23,13.20850912645,52.5260853166522,6073944
TORWEG,2,2015,23,13.1409822700741,52.5397629484692,14352662
TORWEG / KLOSTERBUSCHWEG,1,2015,23,13.1571352,52.5392027,4884674-14352662
VERLÄNGERTE UFERPROMENADE,1,2015,23,13.1153708005828,52.4578565329477,4898689
WEINMEISTERHORNWEG / WILHELMSTR.,3,2015,23,13.1715906,52.5110208,4483958-4483961
WEIßENBURGER STR.,2,2015,23,13.1977281532056,52.5229691131867,4609211
WICKRAMSTR. / PFÄNDNERWEG,1,2015,23,13.125355,52.4536365,4900200-25590237
WILHELMSTR.,8,2015,23,13.1875016391333,52.5207396355308,4483961
ZWEIWINKELWEG,1,2015,23,13.146802889488,52.532103480424,23398380
ALT-LIETZOW / WARBURGZEILE,1,2015,24,13.3115106,52.5178671,4556841-4556844
ALT-LIETZOW / WINTERSTEINSTR.,2,2015,24,13.3065688,52.5181036,4410420-4556841
BEHAIMSTR. / RICHARD-WAGNER-STR.,1,2015,24,13.3065323,52.5167196,4410427-4472003
BISMARCKSTR.,6,2015,24,13.3092057622344,52.5116853533205,4400423
BISMARCKSTR. / FRITSCHESTR.,2,2015,24,13.2997584,52.511046,4400423-4490378
BISMARCKSTR. / KAISERDAMM / SCHLOßSTR. / SUAREZSTR.,4,2015,24,13.297360148850549,52.510945663007156,4396011-4400423-4436950-4475630
BISMARCKSTR. / KAISER-FRIEDRICH-STR.,7,2015,24,13.301590000000001,52.511165399999996,4400423-4436919
BISMARCKSTR. / RICHARD-WAGNER-STR. / SESENHEIMER STR.,4,2015,24,13.307491225,52.511702125,4400423-4410427-24320620
BISMARCKSTR. / RÜCKERTSTR.,2,2015,24,13.303147,52.5112775,4400423-24320477
BISMARCKSTR. / WILMERSDORFER STR.,3,2015,24,13.3052529,52.5114307,4400423-4436887
BONHOEFFERUFER,2,2015,24,13.299298362289,52.5223326009218,4764121
BRANDENBURGISCHE STR. / KURFÜRSTENDAMM / LEWISHAMSTR.,3,2015,24,13.306986441495049,52.49998512849319,4389412-4389663-4436888
BRAUHOFSTR. / GIERKEZEILE / OTTO-SUHR-ALLEE,1,2015,24,13.302252450000001,52.518732525,4403985-4495200-4495201
CHARLOTTENBURGER UFER / LUISENPLATZ / SCHLOßBRÜCKE / SCHLOßBRÜCKENSTEG,2,2015,24,13.299947175,52.52153935,4446694-4446700-4475672
CICEROSTR. / KURFÜRSTENDAMM / LEHNINER PLATZ,1,2015,24,13.30186135,52.49902625,4389412-4444426-27466740
CLAUSEWITZSTR.,1,2015,24,13.3093737,52.50106745,27607436
DAMASCHKESTR.,1,2015,24,13.2992347715881,52.500641228865,4396417
DAMASCHKESTR. / JOACHIM-FRIEDRICH-STR. / KRACAUERPLATZ,1,2015,24,13.2966521,52.5014621,4389511-4389570-4396417
DANCKELMANNSTR. / HORSTWEG,1,2015,24,13.291283,52.5124249,4581909-15920077
DANCKELMANNSTR. / KAISERDAMM / WITZLEBENPLATZ,2,2015,24,13.29158475,52.5106227,4436950-4490373-15920077
DERNBURGSTR.,1,2015,24,13.2861037683182,52.5031469846295,4490214
DERNBURGSTR. / NEUE KANTSTR. / WUNDTSTR.,2,2015,24,13.283736300000001,52.506479299999995,4396009-4490214-4581910
EISENZAHNSTR. / KURFÜRSTENDAMM / WAITZSTR.,1,2015,24,13.3055997,52.4997264,4389412-4437183-4478042
EOSANDERSTR. / OTTO-SUHR-ALLEE / WILMERSDORFER STR.,1,2015,24,13.30442545,52.51809445,4403985-4436887-4517116
FRIEDBERGSTR. / HOLTZENDORFFSTR.,1,2015,24,13.2950556,52.5041754,4396013-4480560
FRIEDRICH-OLBRICHT-DAMM,1,2015,24,13.3171197283175,52.5404644707899,4484022
FRIEDRICH-OLBRICHT-DAMM / THATERS PRIVATWEG / ADAM-VON-TROTT-STR.,1,2015,24,13.31309803109685,52.543528506319404,4484022-4606797-108142293
FRITSCHESTR. / PESTALOZZISTR.,1,2015,24,13.3003932,52.5079678,4490163-4490378
GAUßSTR. / OLBERSSTR. / LISE-MEITNER-STR.,1,2015,24,13.3065401,52.5288292,4410415-4410459-4471991
GERVINUSSTR.,2,2015,24,13.3019526662766,52.503457158011,4396421
GERVINUSSTR. / LEWISHAMSTR. / MOMMSENSTR.,2,2015,24,13.304363675000001,52.50366535,4396421-4436888-4436890
GIESEBRECHTSTR. / WILMERSDORFER STR.,1,2015,24,13.3077966,52.502987,4436887-109303707
GOSLARER UFER / KAISERIN-AUGUSTA-ALLEE / KAISERIN-AUGUSTA-BRÜCKE,2,2015,24,13.3148032,52.52577615,4403874-4469837-4471968
HEBBELSTR. / KAISER-FRIEDRICH-STR.,1,2015,24,13.3006565,52.5161887,4436919-106655154
HOLTZENDORFFSTR. / KANTSTR.,1,2015,24,13.2962944,52.5067688,4396013-4396016
HORSTWEG / SCHLOßSTR.,2,2015,24,13.297212,52.5118249,4475630-4581909
IBURGER UFER,1,2015,24,13.3114715921206,52.5202341822694,4586186
ILSENBURGER STR.,1,2015,24,13.3098582058537,52.5252851134317,4413173
KAISERDAMM,3,2015,24,13.285267096127,52.5101429405904,4436950
KAISERDAMM / RIEHLSTR.,2,2015,24,13.2862613,52.5102055,4436950-4616319
KAISERDAMM / SALDERNSTR. / KAISERDAMMBRÜCKE,1,2015,24,13.2859337,52.5103528,4436950-5174227
KAISERDAMM / SOPHIE-CHARLOTTEN-STR.,4,2015,24,13.289241,52.5103918,4436950-4446513
KAISERDAMM / SOPHIE-CHARLOTTE-PLATZ,1,2015,24,13.2962215,52.5109975,4436950-4446505
KAISER-FRIEDRICH-STR.,4,2015,24,13.3012585215597,52.5125968829247,4436919
KAISER-FRIEDRICH-STR. / OTTO-SUHR-ALLEE / SPANDAUER DAMM / LUISENPLATZ,1,2015,24,13.299607083333333,52.5195793,4403985-4421114-4436919-4446694
KAISER-FRIEDRICH-STR. / PESTALOZZISTR.,1,2015,24,13.3021878,52.5079538,4436919-4490163
KAISERIN-AUGUSTA-ALLEE,7,2015,24,13.3161551681986,52.5257885486183,4403874
KAISERIN-AUGUSTA-ALLEE / SÖMMERINGSTR. / MIERENDORFFPLATZ,1,2015,24,13.30608365,52.52567585,4403874-4410417-4475675
KAISERIN-AUGUSTA-ALLEE / WERNIGERODER STR.,1,2015,24,13.3118369,52.5257499,4403874-4471966
KANTSTR.,3,2015,24,13.3145959456242,52.5061753164759,4396016
KANTSTR. / KRUMME STR.,2,2015,24,13.30930915,52.5065399,4396016-4436885
KANTSTR. / NEUE KANTSTR. / SUAREZSTR.,2,2015,24,13.2950887,52.50684745,4396009-4396011-4396016
KNOBELSDORFFSTR.,1,2015,24,13.2867233257753,52.5129647693507,4515856
KNOBELSDORFFSTR. / SCHLOßSTR. / ZILLESTR.,1,2015,24,13.29689695,52.51354705,4475630-4495207-4515856
KNOBELSDORFFSTR. / SOPHIE-CHARLOTTEN-STR.,2,2015,24,13.2883877,52.5130786,4446513-4515856
KRUMME STR.,1,2015,24,13.3096217121301,52.5103550047687,4436885
KRUMME STR. / OTTO-SUHR-ALLEE / WARBURGZEILE,1,2015,24,13.31049125,52.5161668,4403985-4436885-4556844
KRUMME STR. / WILMERSDORFER STR. / STUTTGARTER PLATZ,2,2015,24,13.3070022,52.5056387,4436885-4436887-25369033
KRUMME STR. / ZILLESTR.,1,2015,24,13.3095241,52.5135645,4436885-4495207
KUNO-FISCHER-STR. / LIETZENSEEUFER / NEUE KANTSTR.,1,2015,24,13.289274075,52.5066556,4396009-4480558-28528177
KURFÜRSTENDAMM,2,2015,24,13.3104997797382,52.5002788869231,4389412
KURFÜRSTENDAMM / LEIBNIZSTR.,7,2015,24,13.3131682,52.5007097,4389412-4402675
KURFÜRSTENDAMM / OLIVAER PLATZ,2,2015,24,13.3131511,52.5005459,4389412-4413755
LEWISHAMSTR.,2,2015,24,13.3054172348276,52.5023215251851,4436888
LISE-MEITNER-STR.,1,2015,24,13.306292253133,52.5304218802543,4471991
LOHMEYERSTR. / OTTO-SUHR-ALLEE,1,2015,24,13.3012514,52.519095750000005,4403985-4471191
LÜDTGEWEG / IBURGER UFER,1,2015,24,13.3120936791367,52.5197837541928,4586186-37247537
MAX-DOHRN-STR. / LISE-MEITNER-STR.,1,2015,24,13.3059626,52.5318691,4446677-4471991
MINDENER STR.,1,2015,24,13.3005080131428,52.5249226135273,4446720
MOMMSENSTR. / WILMERSDORFER STR.,2,2015,24,13.3076005,52.5036211,4436887-4436890
NEHRINGSTR.,1,2015,24,13.2940433843204,52.5155003082563,4515894
NEUE KANTSTR.,1,2015,24,13.2877349624962,52.5065346154044,4396009
NEUE KANTSTR. / WITZLEBENSTR.,1,2015,24,13.292774,52.5067919,4396009-5544317
NEUFERTSTR. / KLAUSENERPLATZ,1,2015,24,13.2926624,52.5178988,4515896-15920080
NORDHAUSER STR. / SÖMMERINGSTR.,1,2015,24,13.3060507,52.5246609,4405479-4410417
OSNABRÜCKER STR.,1,2015,24,13.3004947560862,52.5260571833676,4403876
OTTO-SUHR-ALLEE,1,2015,24,13.3102679724508,52.5163081738283,4403985
OTTO-SUHR-ALLEE / RICHARD-WAGNER-STR. / WINTERSTEINSTR. / RICHARD-WAGNER-PLATZ,2,2015,24,13.306546650000001,52.51747373333333,4403985-4410420-4410427-377571368
PESTALOZZISTR.,3,2015,24,13.3085441041236,52.5078825799748,4490163
PESTALOZZISTR. / WINDSCHEIDSTR.,1,2015,24,13.2987131,52.5079774,4444449-4490163
QUEDLINBURGER STR. / TRESEBURGER STR.,1,2015,24,13.3079268,52.5232608,4471965-4471969
REICHWEINDAMM,1,2015,24,13.301165956918,52.5356692737973,4536966
SAATWINKLER DAMM,1,2015,24,13.2898402142913,52.5482640665361,4484020
SAATWINKLER DAMM / SEESTR. / A 100 BAB / GOERDELERDAMMBRÜCKE / 100 AS BEUSSELSTR,3,2015,24,13.326252099999998,52.5382285,4429838-4484020-24961635
SCHEINERWEG,1,2015,24,13.3034438930653,52.5296891978858,4484082
SCHILLERSTR.,1,2015,24,13.3105337400434,52.5103505433468,4475785
SCHILLERSTR. / WILMERSDORFER STR.,1,2015,24,13.3057024,52.5099627,4436887-4475785
SCHLOßSTR.,1,2015,24,13.2968068388333,52.515623287079,4475630
SCHLOßSTR. / SPANDAUER DAMM,1,2015,24,13.2957434,52.5193386,4421114-4475630
SCHUSTEHRUSSTR.,3,2015,24,13.3006496,52.5171132,4495202
SCHUSTEHRUSSTR. / GIERKEPLATZ,1,2015,24,13.3031091,52.5172488,4495202-4515888
SEESTR. / A 100 BAB / LUDWIG-HOFFMANN-BRÜCKE / GOERDELERDAMMBRÜCKE / 100 AS BEUS,3,2015,24,13.326317199999998,52.5380496,4429838-24961635
SOPHIE-CHARLOTTEN-STR.,2,2015,24,13.2871769402731,52.5170297931538,4446513
SOPHIE-CHARLOTTEN-STR. / SPANDAUER DAMM,3,2015,24,13.2866198,52.5188209,4421114-4446513
SPANDAUER DAMM,3,2015,24,13.2709317347606,52.519815241401,4421114
SPANDAUER DAMM / KLAUSENERPLATZ,1,2015,24,13.2924278,52.5191451,4421114-15920080
STUTTGARTER PLATZ,1,2015,24,13.3029305258567,52.5053104935493,25369033
SUAREZSTR. / WINDSCHEIDSTR.,1,2015,24,13.2972435,52.5106196,4396011-4444449
TAUROGGENER STR.,1,2015,24,13.3014201120781,52.5246794950733,4471976
TEGELER WEG,1,2015,24,13.2965895954145,52.5284656763478,4446635
WAITZSTR.,1,2015,24,13.3058435324502,52.5013823820637,4478042
WILMERSDORFER STR.,7,2015,24,13.3060762909816,52.5088652764144,4436887
WINDSCHEIDSTR.,2,2015,24,13.2990470224209,52.5070795771549,4444449
WUNDTSTR.,1,2015,24,13.2889498750321,52.5092339593384,4581910
ALBRECHT-ACHILLES-STR. / PAULSBORNER STR.,1,2015,24,13.3031345,52.4960068,4440570-4474890
BRANDENBURGISCHE STR.,1,2015,24,13.3108915381865,52.4929510889137,4389663
EISENZAHNSTR.,1,2015,24,13.3048196730012,52.4938713571269,4437183
GEORG-WILHELM-STR.,1,2015,24,13.2904239788829,52.4985633184073,4375671
GEORG-WILHELM-STR. / LÜTZENSTR.,1,2015,24,13.2904855,52.4991922,4375671-4389452
JOACHIM-FRIEDRICH-STR.,1,2015,24,13.2961421029443,52.4972998914893,4389511
JOACHIM-FRIEDRICH-STR. / JOHANN-GEORG-STR. / AGATHE-LASCH-PLATZ,1,2015,24,13.2961781,52.4975897,4385254-4389511
JOACHIM-FRIEDRICH-STR. / KURFÜRSTENDAMM / AGATHE-LASCH-PLATZ,2,2015,24,13.2962083,52.4978908,4389412-4389511
JOHANN-SIGISMUND-STR. / KARLSRUHER STR. / KURFÜRSTENDAMM,1,2015,24,13.294256125,52.49770289999999,4372492-4389412-4389510
JOHANN-SIGISMUND-STR. / WESTFÄLISCHE STR.,1,2015,24,13.2937934,52.4963825,4372491-4389510
KONSTANZER STR. / XANTENER STR. / OLIVAER PLATZ,1,2015,24,13.3126294,52.4992543,4389588-4413755-4437138
KURFÜRSTENDAMM,4,2015,24,13.3104997797382,52.5002788869231,4389412
KURFÜRSTENDAMM / HENRIETTENPLATZ,1,2015,24,13.29122106932355,52.49705553121085,4389412-37885996
KURFÜRSTENDAMM / MARKGRAF-ALBRECHT-STR.,1,2015,24,13.2989025,52.498557,4370499-4389412
KURFÜRSTENDAMM / WESTFÄLISCHE STR.,2,2015,24,13.2913978,52.4971486,4372491-4389412
OLIVAER PLATZ,1,2015,24,13.3142792081825,52.4996247238632,4413755
PAULSBORNER STR.,2,2015,24,13.2983957890425,52.4935778405374,4440570
AM SCHILLERTHEATER,3,2015,25,13.3177950036677,52.511563470314,4491645
AM SCHILLERTHEATER / BISMARCKSTR. / MARIE-ELISABETH-LÜDERS-STR.,1,2015,25,13.3171351,52.51227835,4400423-4491645-109612320
AM SCHILLERTHEATER / SCHILLERSTR. / SCHLÜTERSTR.,1,2015,25,13.3183156,52.5109343,4381166-4475785-4491645
AUGSBURGER STR. / JOACHIMSTHALER STR.,1,2015,25,13.3313233,52.5031121,4409446-150512436
BACHSTR. / STRAßE DES 17. JUNI,12,2015,25,13.3356839,52.51351645,4068038-4377122
BACHSTR. / WEGELYSTR.,1,2015,25,13.3359772,52.5142454,4377122-4716382
BISMARCKSTR.,4,2015,25,13.3092057622344,52.5116853533205,4400423
BISMARCKSTR. / ERNST-REUTER-PLATZ,2,2015,25,13.320914649999999,52.512537699999996,4400423-4403977
BISMARCKSTR. / LEIBNIZSTR.,9,2015,25,13.3147809,52.5120576,4400423-4402675
BISMARCKSTR. / WEIMARER STR.,1,2015,25,13.3126783,52.5119183,4400423-4490166
BLEIBTREUSTR. / KURFÜRSTENDAMM,2,2015,25,13.3194238,52.5015222,4389412-4490389
BLEIBTREUSTR. / LIETZENBURGER STR. / SÄCHSISCHE STR.,1,2015,25,13.31913565,52.49967135,4436793-4436879-4490389
BUDAPESTER STR.,3,2015,25,13.3412661454878,52.5056383000588,4531810
BUDAPESTER STR. / HARDENBERGSTR. / KANTSTR.,1,2015,25,13.333952575,52.505429825,4377785-4396016-4531810
CAUERSTR. / EINSTEINUFER / GALVANISTR. / DOVEBRÜCKE,2,2015,25,13.318839083333335,52.51921828333334,4402674-4556848-25184342-37999255
CAUERSTR. / GUERICKESTR.,1,2015,25,13.317691,52.5178469,4402674-4495179
CAUERSTR. / LEIBNIZSTR. / OTTO-SUHR-ALLEE,4,2015,25,13.31525655,52.514693199999996,4402674-4402675-4403985
DOVESTR.,1,2015,25,13.3203643177824,52.5201939009253,8879377
EINSTEINUFER,1,2015,25,13.3245381166109,52.5168983434312,25184342
ENGLISCHE STR. / SALZUFER,1,2015,25,13.3307921,52.5140385,4400157-4409151
ERNST-REUTER-PLATZ,1,2015,25,13.3218933395389,52.5120075378545,4403977
FASANENSTR.,4,2015,25,13.3275963502206,52.5039718884777,4381554
FASANENSTR. / HARDENBERGSTR.,4,2015,25,13.32826515,52.50811595,4377785-4381554
FASANENSTR. / HERTZALLEE,1,2015,25,13.329694,52.5100634,4381554-4517104
FASANENSTR. / KURFÜRSTENDAMM,2,2015,25,13.3274604,52.503054,4381554-4389412
FASANENSTR. / LIETZENBURGER STR.,2,2015,25,13.3270406,52.5001154,4381554-4436879
FRANKLINSTR. / HELMHOLTZSTR. / GOTZKOWSKYBRÜCKE,2,2015,25,13.328636775,52.522368725,4400158-4400974-24654535
GALVANISTR.,1,2015,25,13.3168243881555,52.5193072383906,4556848
GOETHESTR.,2,2015,25,13.3156074275338,52.5088932851107,4490161
GROLMANSTR.,1,2015,25,13.3229719,52.5051348,4381168
GUERICKESTR.,2,2015,25,13.318775184291,52.5174770274584,4495179
GUERICKESTR. / MARCHSTR.,1,2015,25,13.3235405,52.5159283,4495179-25184733
HARDENBERGPLATZ,3,2015,25,13.3334244410249,52.5073465940394,4409583
HARDENBERGSTR.,5,2015,25,13.3277409427864,52.5084328129281,4377785
HARDENBERGSTR. / JEBENSSTR. / YVA-BOGEN,1,2015,25,13.33121725,52.5067859,4377785-27709316-157658305
HARDENBERGSTR. / JOACHIMSTHALER STR. / HARDENBERGPLATZ,4,2015,25,13.3323368,52.5062876,4377785-4409446-4409583
HARDENBERGSTR. / KNESEBECKSTR.,2,2015,25,13.3234039,52.5108794,4377781-4377785
HARDENBERGSTR. / SCHILLERSTR.,1,2015,25,13.3227749,52.5113183,4377785-4475785
HARDENBERGSTR. / STEINPLATZ,2,2015,25,13.3257352,52.5092455,4377785-4381562
HARDENBERGSTR. / TUNNEL ERNST-REUTER-PLATZ / ERNST-REUTER-PLATZ,4,2015,25,13.32143,52.5120406,4377785-4403977
HELMHOLTZSTR.,3,2015,25,13.3252020475539,52.5216330862646,4400974
HERTZALLEE / JEBENSSTR. / HARDENBERGPLATZ,1,2015,25,13.33267428485875,52.508121045538076,4409583-4517104-157658305
JOACHIMSTHALER STR.,2,2015,25,13.3313345452473,52.5031880946674,4409446
JOACHIMSTHALER STR. / KANTSTR.,5,2015,25,13.3316092,52.50529145,4396016-4409446
JOACHIMSTHALER STR. / KURFÜRSTENDAMM / JOACHIMSTHALER PLATZ,1,2015,25,13.331074164374325,52.5037465745854,4389412-4409446-63657794
JOACHIMSTHALER STR. / LIETZENBURGER STR. / FRIEDRICH-HOLLAENDER-PLATZ,1,2015,25,13.3307943,52.5005433,4409446-4436879
KANTSTR.,2,2015,25,13.3145959456242,52.5061753164759,4396016
KANTSTR. / LEIBNIZSTR.,1,2015,25,13.313888200000001,52.5062822,4396016-4402675
KANTSTR. / SAVIGNYPLATZ,1,2015,25,13.32306905,52.50577525,4381160-4396016
KANTSTR. / UHLANDSTR.,1,2015,25,13.3257335,52.5056994,4371002-4396016
KNESEBECKSTR.,1,2015,25,13.3223017,52.5051158,4377781
KNESEBECKSTR. / KURFÜRSTENDAMM,1,2015,25,13.3218471,52.5020482,4377781-4389412
KURFÜRSTENDAMM,15,2015,25,13.3104997797382,52.5002788869231,4389412
KURFÜRSTENDAMM / MEINEKESTR.,2,2015,25,13.3292498,52.5032787,4389412-4492015
KURFÜRSTENDAMM / RANKESTR. / TAUENTZIENSTR.,2,2015,25,13.335742849999999,52.50439925,4389412-4491984-151523084
KURFÜRSTENDAMM / UHLANDSTR.,2,2015,25,13.3252527,52.50251185,4371002-4389412
KURFÜRSTENDAMM / WIELANDSTR.,3,2015,25,13.3150232,52.5008394,4389412-4490171
LEIBNIZSTR.,1,2015,25,13.3140754240366,52.5074587936719,4402675
LEIBNIZSTR. / MOMMSENSTR.,1,2015,25,13.3134354,52.5032712,4402675-4436890
LEIBNIZSTR. / PESTALOZZISTR.,1,2015,25,13.3141364,52.507813,4402675-4490163
LEIBNIZSTR. / SCHILLERSTR.,3,2015,25,13.3145416,52.51066365,4402675-4475785
LIETZENBURGER STR.,1,2015,25,13.3315783266581,52.5004213215747,4436879
LIETZENBURGER STR. / MEINEKESTR.,2,2015,25,13.3288308,52.500318,4436879-4492015
LOSCHMIDTSTR. / OTTO-SUHR-ALLEE / ZILLESTR.,1,2015,25,13.313500000000001,52.5152151,4403985-4495207-4556845
MARCHSTR. / ERNST-REUTER-PLATZ,2,2015,25,13.321936,52.5132003,4403977-25184733
MARIE-ELISABETH-LÜDERS-STR. / OTTO-SUHR-ALLEE,1,2015,25,13.3173372,52.5139122,4403985-109612320
MEINEKESTR.,1,2015,25,13.3289662500728,52.5013553585195,4492015
MOMMSENSTR.,1,2015,25,13.312968896467,52.5032993094535,4436890
MÜLLER-BRESLAU-STR.,1,2015,25,13.3326045221158,52.5119231973673,26584167
NIEBUHRSTR. / SCHLÜTERSTR.,1,2015,25,13.3172535,52.5042223,4381166-4490168
NÜRNBERGER STR.,3,2015,25,13.3375352385849,52.5014492610931,4491980
NÜRNBERGER STR. / TAUENTZIENSTR.,2,2015,25,13.3392526,52.5030405,4491980-151523084
OTTO-SUHR-ALLEE,4,2015,25,13.3102679724508,52.5163081738283,4403985
PASCALSTR.,1,2015,25,13.3238158169042,52.5233368031276,38053031
PESTALOZZISTR. / SCHLÜTERSTR.,1,2015,25,13.3177635,52.5075991,4381166-4490163
SALZUFER,1,2015,25,13.3259943803536,52.5170421493268,4400157
SALZUFER / STRAßE DES 17. JUNI / CHARLOTTENBURGER BRÜCKE,4,2015,25,13.33161615,52.5132442,4068038-4400157-375759511
SAVIGNYPLATZ,1,2015,25,13.3223655679239,52.5051126250095,4381160
SCHILLERSTR.,1,2015,25,13.3105337400434,52.5103505433468,4475785
SCHLÜTERSTR.,4,2015,25,13.317412662414,52.5053043263097,4381166
STEINPLATZ,1,2015,25,13.3257062785519,52.5084435638872,4381562
STRAßE DES 17. JUNI,4,2015,25,13.3492441,52.5141554,4068038
STRAßE DES 17. JUNI / ERNST-REUTER-PLATZ,1,2015,25,13.3228333,52.512632350000004,4068038-4403977
TAUENTZIENSTR.,6,2015,25,13.338955792075,52.5031510003924,151523084
UHLANDSTR.,7,2015,25,13.3235061274623,52.4936060906921,4371002
WIELANDSTR. / OLIVAER PLATZ,1,2015,25,13.3148252,52.4996702,4413755-4490171
ZILLESTR.,1,2015,25,13.3056385786389,52.513431994788,4495207
AACHENER STR. / PARETZER STR.,1,2015,26,13.3189402,52.4814412,4442071-4442072
AHRWEILERSTR. / WIESBADENER STR.,1,2015,26,13.316919,52.4718392,4395479-4531672
AßMANNSHAUSER STR.,1,2015,26,13.3133542361833,52.4771937541313,142574665
AUGUSTE-VIKTORIA-STR.,1,2015,26,13.2895283044341,52.4855238475833,4446444
BABELSBERGER STR. / BADENSCHE STR.,1,2015,26,13.3352152,52.4859013,4442087-4535205
BABELSBERGER STR. / BERLINER STR.,1,2015,26,13.3351588,52.4879344,4387786-4535205
BADENSCHE STR. / BUNDESALLEE,1,2015,26,13.3308332,52.4861295,4389606-4442087
BAMBERGER STR.,1,2015,26,13.3371284096014,52.4931793679977,4396234
BAMBERGER STR. / HOHENSTAUFENSTR. / NACHODSTR.,1,2015,26,13.337231875,52.4945991,4396234-4396236-4492397
BARSTR. / FEHRBELLINER PLATZ,2,2015,26,13.3146994,52.4899964,4368690-4575447
BERKAER STR.,5,2015,26,13.2859802890365,52.4789839484256,4370509
BERKAER STR. / EGERSTR. / HOHENZOLLERNDAMM,3,2015,26,13.284707932460751,52.479619262382826,4370509-4389171-106059890
BERKAER STR. / KISSINGER STR.,1,2015,26,13.2856836,52.4792355,4370509-4486632
BERKAER STR. / KÖSENER STR. / BERKAER PLATZ,1,2015,26,13.2881275369298,52.4772664201122,4370509-4486678-125094281
BERLINER STR.,5,2015,26,13.323762586368,52.4865493491516,4387786
BERLINER STR. / BIELEFELDER STR. / HOHENZOLLERNDAMM,3,2015,26,13.306461840669751,52.4882098351178,4387786-4389171-131971944
BERLINER STR. / BLISSESTR. / BRANDENBURGISCHE STR.,1,2015,26,13.320287275,52.4864648,4370506-4387786-4389663
BERLINER STR. / BUNDESALLEE,2,2015,26,13.3309947,52.48732185,4387786-4389606
BERLINER STR. / LANDHAUSSTR.,1,2015,26,13.3287944,52.4869058,4387786-4492445
BERLINER STR. / MANNHEIMER STR.,1,2015,26,13.3156996,52.4865082,4368691-4387786
BERLINER STR. / MEHLITZSTR.,3,2015,26,13.3262445,52.486452,4387786-9628394
BERLINER STR. / NASSAUISCHE STR.,1,2015,26,13.3266012,52.4865346,4387786-4395630
BERLINER STR. / PRINZREGENTENSTR.,3,2015,26,13.3331346,52.4876791,4387786-4395584
BERLINER STR. / UHLANDSTR.,2,2015,26,13.322609,52.48647545,4371002-4387786
BERNHARDSTR. / WEXSTR.,1,2015,26,13.3303847,52.4786457,4405314-10360286
BINGER STR.,2,2015,26,13.3095479957212,52.4736875607937,24956490
BINGER STR. / MECKLENBURGISCHE STR.,1,2015,26,13.3094629,52.4786641,4395529-24956490
BLISSESTR.,2,2015,26,13.320370844581,52.4830286520836,4370506
BLISSESTR. / DETMOLDER STR.,2,2015,26,13.32031495,52.47878,4370506-4395535
BLISSESTR. / MECKLENBURGISCHE STR. / UHLANDSTR.,2,2015,26,13.32023395,52.4836725,4370506-4371002-4395529
BLISSESTR. / WILHELMSAUE,2,2015,26,13.3204126,52.485346,4370506-4407114
BORNIMER STR. / KURFÜRSTENDAMM / STORKWINKEL,1,2015,26,13.2868567,52.495765,4389412-4389415-4495255
BRABANTER STR. / MECKLENBURGISCHE STR.,1,2015,26,13.3151074,52.4814847,4395529-4575470
BRANDENBURGISCHE STR.,1,2015,26,13.3108915381865,52.4929510889137,4389663
BRANDENBURGISCHE STR. / DÜSSELDORFER STR. / PADERBORNER STR. / TUNNEL AM ADENAUE,1,2015,26,13.307971625,52.49715245,4389663-4436883-32880449
BRANDENBURGISCHE STR. / KONSTANZER STR.,1,2015,26,13.3101189,52.4934483,4389588-4389663
BRANDENBURGISCHE STR. / MANNHEIMER STR. / SÄCHSISCHE STR.,1,2015,26,13.3160137,52.489134925,4368691-4389663-4436793
BRANDENBURGISCHE STR. / RAVENSBERGER STR. / ZÄHRINGERSTR.,1,2015,26,13.308234800000001,52.4961728,4389663-4437114-4437186
BREGENZER STR.,1,2015,26,13.3130408,52.49803745,4437141
BREITE STR. / HELGOLANDSTR. / MECKLENBURGISCHE STR. / ZOPPOTER STR.,1,2015,26,13.299259500762219,52.47315402853567,4368686-4395529-4486692-44331280
BRIENNER STR. / HOHENZOLLERNDAMM / RUHRSTR.,1,2015,26,13.312541450000001,52.4898751,4387785-4389171-4478051
BUNDESALLEE,1,2015,26,13.3301599742996,52.4827820986722,4389606
BUNDESALLEE / DETMOLDER STR. / WEXSTR. / BUNDESPLATZ,1,2015,26,13.328537400000002,52.47876575,4389606-4395535-4405314-4442080
BUNDESALLEE / GÜNTZELSTR.,3,2015,26,13.3308079,52.4908284,4389604-4389606
BUNDESALLEE / HOHENZOLLERNDAMM / NACHODSTR.,6,2015,26,13.330664800000001,52.49532945,4389171-4389606-4396236
BUNDESALLEE / TRAUTENAUSTR.,2,2015,26,13.3310005,52.4931651,4389606-84799534
BUNDESALLEE / WAGHÄUSELER STR.,2,2015,26,13.3311274,52.4839157,4389606-4535206
CUNOSTR.,1,2015,26,13.2959087557736,52.48152007859,4486587
CUNOSTR. / FORCKENBECKSTR.,1,2015,26,13.2959099,52.4811817,4368305-4486587
DARMSTÄDTER STR.,1,2015,26,13.31727365,52.49739745,4437135
DETMOLDER STR. / MECKLENBURGISCHE STR. / RUDOLSTÄDTER STR.,3,2015,26,13.3129629,52.480462700000004,4389199-4395529-4395535
DILLENBURGER STR. / LENTZEALLEE / SCHLANGENBADER STR.,1,2015,26,13.308002225,52.468298649999994,4392709-4395528-25045204
DURLACHER STR.,2,2015,26,13.3336129518248,52.4797335959182,4500193
DÜSSELDORFER STR.,1,2015,26,13.317110574155,52.4963823287623,32880449
EISENZAHNSTR.,1,2015,26,13.3048196730012,52.4938713571269,4437183
EISENZAHNSTR. / WESTFÄLISCHE STR.,2,2015,26,13.3047974,52.4933961,4372491-4437183
ELGERSBURGER STR. / FORCKENBECKSTR. / HOHENZOLLERNDAMM,1,2015,26,13.290006075,52.482218950000004,4368305-4368309-4389171
EMSER STR.,1,2015,26,13.3198866586873,52.4956775789688,4436877
EMSER STR. / PARISER STR. / LUDWIGKIRCHPLATZ,3,2015,26,13.3203145,52.4980128,4436877-4436882-4437139
FASANENSTR. / PARISER STR.,1,2015,26,13.3269175,52.4964381,4381554-4436882
FECHNERSTR.,1,2015,26,13.3221164283977,52.487987326159,4385197
FECHNERSTR. / GASTEINER STR. / UHLANDSTR.,1,2015,26,13.3228534,52.4875421,4371002-4385197-4385198
FEHLERSTR. / HANAUER STR. / LAUBACHER STR.,2,2015,26,13.3202922,52.4767577,4370507-4531637-4535354
FEHRBELLINER PLATZ,2,2015,26,13.3140893444786,52.490579700129,4575447
FORCKENBECKSTR.,5,2015,26,13.3004214575129,52.4805412084904,4368305
FORCKENBECKSTR. / MECKLENBURGISCHE STR. / HEIDELBERGER PLATZ,1,2015,26,13.3102612,52.47902955,4368305-4395529-4575445
FRANZENSBADER STR.,1,2015,26,13.28558750041,52.4830149681897,4368310
GEISBERGSTR. / NÜRNBERGER STR. / SCHAPERSTR. / SPICHERNSTR.,1,2015,26,13.334379066666665,52.49852706666667,4449438-4491980-4492002-4492371
GEISENHEIMER STR.,1,2015,26,13.3169500902528,52.4693451488527,4535438
GEISENHEIMER STR. / KREUZNACHER STR. / LAUBACHER STR. / MAßMANNSTR.,1,2015,26,13.319801566666667,52.4670634,4370507-4535438-4571107-4603338
GRAINAUER STR. / NACHODSTR. / PRAGER STR.,1,2015,26,13.3346198,52.4951138,4396235-4396236-4492376
GÜNTZELSTR.,1,2015,26,13.3280158937809,52.490988596592,4389604
GÜNTZELSTR. / HELMSTEDTER STR.,1,2015,26,13.3342701,52.4906659,4389604-4396231
GÜNTZELSTR. / NASSAUISCHE STR. / TRAUTENAUSTR.,1,2015,26,13.32663775,52.49129565,4389604-4395630-84799534
GÜNTZELSTR. / PRINZREGENTENSTR.,1,2015,26,13.3330485,52.490723,4389604-4395584
GÜNTZELSTR. / UHLANDSTR.,1,2015,26,13.3232199,52.4915371,4371002-4389604
HANAUER STR. / SPESSARTSTR.,1,2015,26,13.3195122,52.4768292,4531637-49184342
HERTELSTR. / LAUBACHER STR. / RAUENTHALER STR.,1,2015,26,13.3199595,52.4688116,4370507-4756340-52334140
HOHENZOLLERNDAMM,7,2015,26,13.3040089583021,52.4882631048035,4389171
HOHENZOLLERNDAMM / A 100 BAB / HOHENZOLLERNDAMMBRÜCKE / 100 AS HOHENZOLLERNDAMM,2,2015,26,13.300294999999998,52.487771949999996,4389171-4446413
HOHENZOLLERNDAMM / FEHRBELLINER PLATZ,5,2015,26,13.31465315,52.4905344,4389171-4575447
HOHENZOLLERNDAMM / KONSTANZER STR.,2,2015,26,13.30799715,52.488569850000005,4389171-4389588
HOHENZOLLERNDAMM / LANDECKER STR. / SALZBRUNNER STR.,1,2015,26,13.293862,52.484187,4389171-4449369-21852048
HOHENZOLLERNDAMM / PFALZBURGER STR.,1,2015,26,13.3217695,52.4930217,4389171-4395632
HOHENZOLLERNDAMM / RUDOLSTÄDTER STR. / SEESENER STR.,2,2015,26,13.302299075,52.488314725,4368307-4389171-4389199
HOHENZOLLERNDAMM / SÄCHSISCHE STR.,1,2015,26,13.3167667,52.4911625,4389171-4436793
HOHENZOLLERNDAMM / SIGMARINGER STR.,2,2015,26,13.318901499999999,52.491967,4385195-4389171
HOHENZOLLERNDAMM / UHLANDSTR.,3,2015,26,13.323508499999999,52.4936249,4371002-4389171
HOLSTEINISCHE STR.,1,2015,26,13.3248008934296,52.490569227933,4395631
HOMBURGER STR. / LAUBACHER STR. / TAUNUSSTR.,1,2015,26,13.3201501,52.4735457,4370507-4535459-4536910
HUNDEKEHLESTR.,1,2015,26,13.2860101801246,52.4759172565842,4368687
HUNDEKEHLESTR. / RHEINBABENALLEE,2,2015,26,13.28238735,52.4757433,4368687-4486595
KAHLSTR. / RUDOLSTÄDTER STR.,1,2015,26,13.3121387,52.4808822,4389199-37878081
KALISCHER STR.,1,2015,26,13.308668266355,52.4856414434983,4490444
