street,count,year,directorate,lat,lng,oneway_ratio,feature_count,feature_length,ride_length,features
ALT-HEILIGENSEE,1,2018,11,13.2125310214956,52.606811173843,0.08337316982299642,1,2223.88428197398,4262.35628204025,5046518
ALT-REINICKENDORF / ROEDERNALLEE,2,2018,11,13.3477435,52.5758387,,2,,,4067922-4068065
AM BÄRENSPRUNG,1,2018,11,13.2449400738937,52.610261380144,0.0,1,424.062566868255,848.12513373651,21278814
AM BORSIGTURM,1,2018,11,13.2857402461926,52.583705456957,0.4840656500215672,1,1418.16108778857,2149.839106781473,4796771
AM DACHSBAU / RUPPINER CHAUSSEE,1,2018,11,13.2358602,52.6211396,,2,,,4795846-5046979
AM DACHSBAU / SCHULZENDORFER STR.,1,2018,11,13.2317361,52.6126793,,2,,,5026423-5046979
AM DACHSBAU / ZEISGENDORFER WEG,1,2018,11,13.2332935,52.6159389,,2,,,5046979-5047005
AM NORDGRABEN / EICHBORNDAMM,3,2018,11,13.3241149,52.5876491,,2,,,4537077-4678210
AM NORDGRABEN / TRIFTSTR. / TRIFTBRÜCKE,2,2018,11,13.3171179,52.5882254,,2,,,4678210-4766009
AN DER MÜHLE / KAROLINENSTR. / WAIDMANNSLUSTER DAMM / FLIEßBRÜCKE,2,2018,11,13.28081185,52.59383055,,3,,,4540101-4645180-4796341
ANTONIENSTR.,1,2018,11,13.3125896827053,52.5733895514657,1.0,1,1199.30549179144,1199.30549179144,26401499
ANTONIENSTR. / EICHBORNDAMM / MIRAUSTR.,2,2018,11,13.31567995,52.577957049999995,,3,,,4537077-4804097-26401499
ANTONIENSTR. / SCHARNWEBERSTR. / A 111 BAB AUTOBAHNZUBRINGER HAMBURG / 111 AS EI,2,2018,11,13.3105684,52.5679469,,2,,,4068044-26401499
ANTONIENSTR. / WITTESTR.,1,2018,11,13.3141432,52.5767033,,2,,,4589063-26401499
AROSER ALLEE / EMMENTALER STR. / GOTTHARDSTR.,1,2018,11,13.351202,52.56760225,,3,,,4581788-4638312-4804202
AROSER ALLEE / HOLLÄNDERSTR.,4,2018,11,13.3539599,52.5620932,,2,,,4581788-4610047
AROSER ALLEE / LINDAUER ALLEE,2,2018,11,13.352008099999999,52.5737367,,2,,,4067951-4581788
AUGUSTE-VIKTORIA-ALLEE,1,2018,11,13.3188971633372,52.5706204886464,0.0,1,1528.27460768662,3056.54921537324,12305946
AUGUSTE-VIKTORIA-ALLEE / EICHBORNDAMM,1,2018,11,13.3132124,52.5714168,,2,,,4537077-12305946
AUGUSTE-VIKTORIA-ALLEE / MELLER BOGEN,1,2018,11,13.3207842,52.5703567,,2,,,4675235-12305946
AUGUSTE-VIKTORIA-ALLEE / ZOBELTITZSTR. / QUÄKERSTR.,1,2018,11,13.307966,52.5721026,,3,,,4801744-8873639-12305946
BERLINER STR.,3,2018,11,13.2885986168966,52.5840442468817,0.9861818660635008,1,3967.50129861006,4022.324762947489,4588911
BERLINER STR. / AM BORSIGTURM,2,2018,11,13.2887271,52.584146,,2,,,4588911-4796771
BERLINER STR. / BERNAUER STR. / HOLZHAUSER STR. / SEIDELSTR. / BERNHARD-LICHTENB,1,2018,11,13.294710666666667,52.5763011,,4,,,4537056-4568174-4569873-4588911
BERLINER STR. / BIEDENKOPFER STR.,2,2018,11,13.2918459,52.5799593,,2,,,4588911-4796788
BERLINER STR. / ERNSTSTR. / AM BORSIGTURM,1,2018,11,13.2900057,52.5825572,,3,,,4588911-4645235-4796771
BERLINER STR. / GRUßDORFSTR.,1,2018,11,13.2847547,52.5886209,,2,,,4588911-4588918
BERNAUER STR.,2,2018,11,13.259435689821,52.5702316728456,0.08110854415193171,1,6739.65062607703,12932.658001780297,4568174
BERNAUER STR. / MAIENWERDERWEG,2,2018,11,13.2546009,52.5619711,,2,,,4568174-6926776
BERNAUER STR. / STRAßE L (HOKA III),1,2018,11,13.2492478,52.5523725,,2,,,4568174-14484650
BLANKESTR. / SCHARNWEBERSTR.,4,2018,11,13.329229,52.5634051,,2,,,4068044-4675067
BOLLESTR.,1,2018,11,13.2972693798342,52.5924738000866,0.0,1,497.72946279262,995.45892558524,16355531
BONIFAZIUSSTR. / SANDGRASWEG / WAIDMANNSLUSTER DAMM,1,2018,11,13.29543465,52.597009625,,3,,,4540101-4802116-23048170
BORSIGDAMM,1,2018,11,13.2749358,52.581923,0.0,1,816.915132683973,1633.830265367946,4796515
BORSIGDAMM / NEHEIMER STR. / UFERPROMENADE BORSIGDAMM,1,2018,11,13.2758168,52.5776576,,2,,,4796515-4796779
BREITENBACHSTR.,1,2018,11,13.3095570981623,52.5786425692935,0.0,1,893.36257975888,1786.72515951776,8100317
BREITENBACHSTR. / INNUNGSSTR.,1,2018,11,13.3093939,52.57878,,2,,,4804124-8100317
BRUNOWSTR. / BUDDESTR.,1,2018,11,13.2888315,52.5879802,,2,,,4796510-4804125
BRUSEBERGSTR. / TEICHSTR.,1,2018,11,13.3468335,52.5685633,,2,,,4546470-16750370
BUDDESTR.,1,2018,11,13.2869118373003,52.5908625911378,0.1770907194104892,1,1075.94861979141,1961.3567244552364,4804125
CONRADSTR. / HOLZHAUSER STR. / SOLTAUER STR.,1,2018,11,13.3028918,52.5807442,,3,,,4569873-8752473-8752808
DAMBOCKSTR. / HEILIGENSEESTR.,1,2018,11,13.2429647,52.6016143,,2,,,4645149-18783883
EGELLSSTR.,1,2018,11,13.2850484917345,52.580801975637,0.0,1,838.01395574309,1676.02791148618,4796769
EICHBORNDAMM,1,2018,11,13.3208638337429,52.5839862620854,0.4134086255837759,1,3698.30618957787,5867.7007003343815,4537077
EICHBORNDAMM / HERMANN-PIPER-STR.,1,2018,11,13.3236514,52.5871912,,2,,,4537077-326452754
EICHBORNDAMM / SCHARNWEBERSTR. / A 111 BAB AUTOBAHNZUBRINGER HAMBURG / 111 AS EI,3,2018,11,13.3119439,52.567969,,2,,,4068044-4537077
EICHBORNDAMM / WALDSTR. / WITTESTR.,1,2018,11,13.3150977,52.5765709,,3,,,4537077-4589063-4706735
ELCHDAMM,1,2018,11,13.2307241359162,52.5999903186868,0.0,1,2561.15961870881,5122.31923741762,5046521
FLOTTENSTR. / ROEDERNALLEE,1,2018,11,13.3472958,52.5784973,,2,,,4068065-37142126
FRIEDERIKESTR. / JÖRSSTR.,1,2018,11,13.2290979,52.5732735,,2,,,5046356-35576538
GENERAL-BARBY-STR. / WALDSTR.,1,2018,11,13.3188928,52.5761148,,2,,,4537082-4706735
GENERAL-WOYNA-STR. / SCHARNWEBERSTR.,1,2018,11,13.3146625,52.5673317,,2,,,4068044-4537083
GOTTHARDSTR.,1,2018,11,13.3422468866313,52.5665333933204,0.43902473147089566,1,1952.92783767457,3048.4720558320246,4804202
GROßKOPFSTR. / OLLENHAUERSTR.,2,2018,11,13.3286759,52.5659966,,2,,,4675069-23125889
HABICHTSTR. / KONRADSHÖHER STR. / WALDKAUZSTR.,1,2018,11,13.2356208,52.5864194,,3,,,24335957-24335958-24403109
HABICHTSTR. / TURMFALKENSTR.,1,2018,11,13.2296064,52.5853298,,2,,,5046428-24335958
HEILIGENSEESTR. / KONRADSHÖHER STR.,1,2018,11,13.2520467,52.5998978,,2,,,4645149-24403109
HEILIGENSEESTR. / REIHERALLEE,1,2018,11,13.2388315,52.6025672,,2,,,4645149-30813769
HENNIGSDORFER STR. / MATTENBUDER PFAD,1,2018,11,13.2205084,52.6169392,,2,,,6235863-8669531
HENNIGSDORFER STR. / ZUR SONNENHÖHE,1,2018,11,13.2269184,52.6260045,,2,,,6235863-41709729
HERMSDORFER DAMM / WAIDMANNSLUSTER DAMM / A 111 BAB AUTOBAHNZUBRINGER HAMBURG /,1,2018,11,13.285462,52.5949833,,2,,,4540101-4540161
HOLZHAUSER STR.,7,2018,11,13.3062486642159,52.5823837393857,0.6597659538650835,1,3163.07281063474,4239.25787121634,4569873
HOLZHAUSER STR. / A 111 BAB AUTOBAHNZUBRINGER HAMBURG / 111 AS HOLZHAUSER STR AU,2,2018,11,13.306359210145176,52.582156842441364,0.6597659538650835,1,3163.07281063474,4239.25787121634,4569873
HOLZHAUSER STR. / TRIFTSTR.,1,2018,11,13.3162514,52.5868657,,2,,,4569873-4766009
HOLZHAUSER STR. / WITTESTR.,1,2018,11,13.2995817,52.5790901,,2,,,4569873-4589063
HUMBOLDTSTR.,1,2018,11,13.3381243661945,52.571507254114,0.0,1,1271.55531080766,2543.11062161532,4068105
HUMBOLDTSTR. / LINDAUER ALLEE,2,2018,11,13.345956,52.5745518,,2,,,4067951-4068105
JÖRSSTR.,1,2018,11,13.2295190881634,52.5732574753319,0.0,1,478.919640739907,957.839281479814,35576538
KAPWEG,2,2018,11,13.3285250646172,52.5624606496312,1.0,1,559.927131135321,559.927131135321,4071978
KAPWEG / KURT-SCHUMACHER-DAMM,3,2018,11,13.3264841,52.5624697,,2,,,4071978-4432668
KAROLINENSTR.,2,2018,11,13.2795871857301,52.5947514621317,0.7148509938963811,1,1738.74724331566,2234.5492916125277,4645180
KETTELERPFAD / WAIDMANNSLUSTER DAMM,1,2018,11,13.2942144,52.5964512,,2,,,4540101-4802128
KIEFHEIDER WEG,1,2018,11,13.244184156355,52.6209380547013,0.0,1,748.250119359915,1496.50023871983,5786835
KIENHORSTSTR.,2,2018,11,13.3237129429492,52.573833260125,0.1430804802462468,1,1529.1340960615,2839.47895129761,4067941
KLAMANNSTR. / LINDAUER ALLEE,1,2018,11,13.3413343,52.5751666,,2,,,4067951-4675216
KURT-SCHUMACHER-DAMM,3,2018,11,13.3159456156583,52.5595637702054,0.9584122562356889,1,4846.73170080341,5048.296336870785,4432668
KURT-SCHUMACHER-DAMM / ARISTIDE-BRIAND-BRÜCKE,1,2018,11,13.30666296270125,52.55521283166565,,2,,,4432668-24973001
KURT-SCHUMACHER-DAMM / OLLENHAUERSTR. / SCHARNWEBERSTR. / KURT-SCHUMACHER- PLATZ,1,2018,11,13.32804794694705,52.56401823735403,,4,,,4068044-4071974-4432668-23125889
KURT-SCHUMACHER-DAMM / STRAßE 442 / CHARLES-CORCELLE-RING,1,2018,11,13.306747575,52.565719475,,3,,,4432668-4674816-5060080
LIENEMANNSTR. / WALDSTR.,1,2018,11,13.3232964,52.5758296,,2,,,4675239-4706735
LINDAUER ALLEE / OLLENHAUERSTR. / WALDSTR.,1,2018,11,13.33210445,52.575437550000004,,3,,,4067951-4706735-23125889
MEDEBACHER WEG,1,2018,11,13.2806402813667,52.586939851202,0.0,1,704.520799878864,1409.041599757728,4796786
MEDEBACHER WEG / VEITSTR.,1,2018,11,13.2812259,52.585493,,2,,,4796503-4796786
MORÄNENWEG / WAIDMANNSLUSTER DAMM,1,2018,11,13.3012144,52.5995487,,2,,,4540101-48681562
NAMSLAUSTR.,1,2018,11,13.2856479691473,52.5786411581561,0.0,1,1013.44616793369,2026.89233586738,4796801
NORDLICHTSTR.,1,2018,11,13.3214548763199,52.5642571488948,0.021669733273704875,1,799.814417394902,1582.2970696963928,4675017
OLLENHAUERSTR.,5,2018,11,13.3305015390962,52.5711561820266,1.0,1,3074.16741653692,3074.16741653692,23125889
OLLENHAUERSTR. / PFAHLERSTR.,1,2018,11,13.3311316,52.572456,,2,,,4675213-23125889
OTISSTR. / SEIDELSTR. / ALLÉE ST. EXUPÉRY,4,2018,11,13.2996311,52.56977155,,3,,,4537056-4801741-24802099
OTISSTR. / WITTESTR.,1,2018,11,13.3076581,52.5773746,,2,,,4589063-4801741
ROEDERNALLEE,2,2018,11,13.3430967289215,52.5840282275831,0.33835249206134144,1,3150.7399577959,5235.4191990343115,4068065
ROSENORTER STEIG,1,2018,11,13.2321465741391,52.6196043209444,0.0,1,389.350869235455,778.70173847091,5047011
RUPPINER CHAUSSEE,10,2018,11,13.2482456459044,52.6126850780797,0.007696745509965465,1,6695.56534883856,13339.596635141766,4795846
RUPPINER CHAUSSEE / SCHULZENDORFER STR. / ZUR BAB A111-E26,2,2018,11,13.2448978,52.6144116,,2,,,4795846-5026423
SANDGRASWEG,1,2018,11,13.2958581,52.5966138,0.5820552617969759,1,193.372378893096,274.191347165267,23048170
SANKT-GALLER-STR. / TEICHSTR.,1,2018,11,13.34753,52.5726273,,2,,,4546470-5117273
SCHARNWEBERSTR.,12,2018,11,13.3189223707098,52.5662213610136,0.9889977906786499,1,3666.33707636706,3706.6748843238765,4068044
SCHOLLENHOF,1,2018,11,13.3009920255294,52.6003418763227,1.0,1,350.911716387872,350.911716387872,60077031
SCHWARZER WEG,1,2018,11,13.3028060578578,52.5707804364114,0.0,1,294.495728802006,588.991457604012,6928719
STOCKUMER STR.,1,2018,11,13.2886907499202,52.5763897318988,0.0,1,658.043404454936,1316.086808909872,8007326
TALSANDWEG / WAIDMANNSLUSTER DAMM,1,2018,11,13.3001083,52.5991432,,2,,,4540101-16355207
TILE-BRÜGGE-WEG / ZIEKOWSTR.,1,2018,11,13.2917683,52.5914538,,2,,,4645177-16355536
TRETTACHZEILE,1,2018,11,13.2932976544828,52.5871174948968,0.0,1,199.261582082676,398.523164165352,8873220
VON-DER-GABLENTZ-STR.,1,2018,11,13.3258825259769,52.5657844748306,0.36818257441810603,1,363.371908239448,592.9566118320762,10737928
WAIDMANNSLUSTER DAMM,2,2018,11,13.2982953754575,52.5983526201128,0.512655784186397,1,5191.09875133036,7720.950701508427,4540101
WALDSTR.,3,2018,11,13.3235606019999,52.575817356241,0.47603977225563504,1,1518.0089965713,2313.3853361327933,4706735
WITTESTR.,1,2018,11,13.3027221495472,52.5779972177316,0.2343971419123569,1,1951.38360236388,3445.3684655590273,4589063
ZERMATTER STR.,1,2018,11,13.350936277775,52.5658051175509,0.0,1,356.592318781459,713.184637562918,4638309
ZIEGENORTER PFAD,1,2018,11,13.2353787465519,52.6240647638826,0.0,1,439.539259693141,879.078519386282,22375365
ZOBELTITZSTR.,1,2018,11,13.3152059191729,52.5692486441614,0.08753751115022766,1,1464.22820474292,2800.281516686679,8873639
ALEMANNENSTR. / MAXIMILIANKORSO,1,2018,12,13.2806915,52.6341015,,2,,,16866582-16885071
ALMUTSTR. / BERLINER STR.,1,2018,12,13.3023219,52.63738875,,2,,,5051463-9703378
ALT-WITTENAU / EICHBORNDAMM,2,2018,12,13.3263192,52.5916679,,2,,,4537077-4765745
ALT-WITTENAU / HERMSDORFER STR. / TRIFTSTR.,1,2018,12,13.321196875,52.593586724999994,,3,,,4765745-4765947-4766009
ALT-WITTENAU / ORANIENBURGER STR.,1,2018,12,13.3342518,52.5896751,,2,,,4071964-4765745
AM LEHNSHOF / BERLINER STR.,1,2018,12,13.3018981,52.6369117,,2,,,5051463-50484719
AM NORDGRABEN / ROEDERNALLEE / ROEDERNBRÜCKE,3,2018,12,13.3399001,52.58808515,,2,,,4068065-4678210
AM NORDGRABEN / SCHORFHEIDESTR.,1,2018,12,13.34592,52.5896079,,2,,,4678210-11953271
AM OSRÜCKEN / ÖSCHELBRONNER WEG / SCHLUCHSEESTR.,1,2018,12,13.3395452,52.6098316,,3,,,4802548-4802550-4802554
AM SCHÄFERSEE,1,2018,12,13.3635256500555,52.5640693676633,0.0,1,77.2585922908288,154.5171845816576,4638298
AM VIERRUTENBERG / ZABEL-KRÜGER-DAMM,1,2018,12,13.3438928,52.613506,,2,,,4802391-4802406
AM WALDIDYLL,1,2018,12,13.2895463195975,52.6114814856488,0.0,1,298.366988102856,596.733976205712,22899792
AMANDASTR. / VELTHEIMSTR.,1,2018,12,13.3187044,52.6262389,,2,,,4805075-22378927
AMBOßWEG / WILHELMSRUHER DAMM,1,2018,12,13.3362992,52.5956651,,2,,,4765110-4765660
AMENDESTR.,2,2018,12,13.3691434651511,52.5687017479048,0.0,1,1067.01300016548,2134.02600033096,4637899
AMENDESTR. / BREITKOPFSTR.,1,2018,12,13.366645,52.5681651,,2,,,4637899-5117286
AMENDESTR. / HERBSTSTR.,1,2018,12,13.3739348,52.5713904,,2,,,4637899-4764692
AMSELGRUND,1,2018,12,13.2915979765136,52.6090050815752,0.0,1,451.581908163942,903.163816327884,4804658
AMSELGRUND / HERMSDORFER DAMM,1,2018,12,13.2914461,52.6070797,,2,,,4540161-4804658
BEI DEN WÖRDEN / TRIFTSTR.,1,2018,12,13.3181668,52.5893125,,2,,,4765936-4766009
BENEDIKTINERSTR. / TANNENSTR.,1,2018,12,13.2853118,52.6321985,,2,,,16857796-16901110
BENEKENDORFFSTR.,1,2018,12,13.3370513872819,52.6148643347283,0.0,1,2625.44070518429,5250.88141036858,4802408
BERLINER STR.,2,2018,12,13.2840014806453,52.6650751210871,0.0,1,1489.51035907075,2979.0207181415,5051463
BERLINER STR. / BURGFRAUENSTR. / VELTHEIMSTR.,1,2018,12,13.30035235,52.637004850000004,,3,,,4804925-4805075-5051463
BERLINER STR. / ODILOSTR.,1,2018,12,13.2948256,52.64190785,,2,,,4804924-5051463
BERLINER STR. / ROBINIENWEG,2,2018,12,13.30029,52.6368487,,2,,,4804482-5051463
BERLINER STR. / TEGELER STR.,1,2018,12,13.30029,52.6368487,,2,,,5051463-22900000
BURGFRAUENSTR.,1,2018,12,13.3004756080366,52.6263783183817,0.0,1,1806.11688677271,3612.23377354542,4804925
BURGFRAUENSTR. / SILVESTERWEG,1,2018,12,13.3074337,52.6271565,,2,,,4804925-57743550
CYCLOPSTR.,1,2018,12,13.3281886633622,52.5995811626737,0.0,1,693.88561253374,1387.77122506748,4765877
DANNENWALDER WEG / FINSTERWALDER STR. / WILHELMSRUHER DAMM,1,2018,12,13.339320325,52.595892075,,3,,,4765110-4765352-4802750
DANNENWALDER WEG / SCHORFHEIDESTR.,1,2018,12,13.3461176,52.5915004,,2,,,4765352-11953271
DIANASTR. / WAIDMANNSLUSTER DAMM,1,2018,12,13.3092121,52.6033545,,2,,,4540101-25799886
EDELHOFDAMM,2,2018,12,13.2991959059906,52.6355300855933,0.8056352175781311,1,1787.85052942598,2135.3457085806835,4902508
EICHBORNDAMM / ORANIENBURGER STR. / WILHELMSRUHER DAMM,2,2018,12,13.332948349999999,52.5954217,,3,,,4071964-4537077-4765110
EICHBORNDAMM / TALDORFER WEG,1,2018,12,13.3253627,52.5892744,,2,,,4537077-4765864
EICHHORSTER WEG,2,2018,12,13.3411793,52.6000307,0.0,1,1219.19940922463,2438.39881844926,4802786
EMMENTALER STR. / GENFER STR.,1,2018,12,13.3563688,52.5689784,,2,,,4638312-4638321
EMMENTALER STR. / KLEMKESTR.,1,2018,12,13.3685047,52.5743501,,2,,,4071972-4638312
FALKENTALER STEIG,1,2018,12,13.2977533451783,52.6249519713485,0.0,1,1458.65144438436,2917.30288876872,4804837
FINSTERWALDER STR.,2,2018,12,13.344783895244,52.6014821509503,0.07416034137259675,1,1814.95290212436,3495.308277451992,4802750
FLOTTENSTR. / STEGEWEG / MARKSCHEIDERSTR.,1,2018,12,13.3556161,52.5776122,,3,,,37142124-37142125-37142126
FRIEDRICHSTHALER WEG / KLAUSHAGER WEG,1,2018,12,13.2974319,52.6173411,,2,,,4804819-4804863
FROHNAUER STR. / HERMSDORFER DAMM,1,2018,12,13.3010259,52.6162056,,2,,,4540161-10620897
FÜRSTENDAMM,3,2018,12,13.3008334339003,52.631385316609,0.0,1,1349.2210712652,2698.4421425304,4902510
GOLLANCZSTR.,1,2018,12,13.2864710162361,52.6451839656815,0.156811839672983,1,2440.02024959849,4497.41643501811,6247948
GORKISTR.,1,2018,12,13.3005961096969,52.5914608921347,0.16105742346442578,1,3255.85259364019,5987.325957368724,4765928
GORKISTR. / GRÜNLANDWEG,1,2018,12,13.31036975332275,52.59236441611595,,2,,,4765928-4765933
GRÜNROCKWEG / RESIDENZSTR.,1,2018,12,13.3599631,52.5723566,,2,,,4594653-4637903
HAUSOTTERSTR. / REGINHARDSTR.,1,2018,12,13.3725654,52.5682249,,2,,,4610134-4637947
HAUSOTTERSTR. / RESIDENZSTR. / STARGARDTSTR.,2,2018,12,13.3627676,52.5666076,,3,,,4594653-4637947-32009527
HERBSTSTR.,1,2018,12,13.3752804302224,52.5709926909507,1.0,1,688.089437265644,688.089437265644,4764692
HERMSDORFER DAMM,1,2018,12,13.2951375793075,52.610192407,0.2479147025081668,1,5384.49784323905,9434.099505515625,4540161
HERMSDORFER DAMM / ROEDERNSTR.,1,2018,12,13.3110895,52.6221373,,2,,,4540161-4804920
HERMSDORFER STR.,1,2018,12,13.3237373203923,52.5984776046051,0.25189893955407316,1,1473.75805382136,2576.2780167258447,4765947
HERMSDORFER STR. / JEAN-JAURÈS-STR. / CYCLOPSTR.,1,2018,12,13.3248277,52.6020963,,3,,,4765877-4765947-4766077
HERMSDORFER STR. / ORANIENBURGER STR.,1,2018,12,13.3265459,52.6046487,,2,,,4071964-4765947
HOCHJAGDSTR. / NIMRODSTR. / AVENUE CHARLES DE GAULLE,1,2018,12,13.3144284,52.6029041,,3,,,4766080-4766096-4766101
HOLLÄNDERSTR. / LETTEALLEE / RESIDENZSTR. / FAHLANDGASSE / FRANZ-NEUMANN-PLATZ,2,2018,12,13.365729966666668,52.56300831666667,,4,,,4594653-4610047-4610176-24842231
HOLLÄNDERSTR. / MARKSTR.,4,2018,12,13.364505000000001,52.5626951,,2,,,4610040-4610047
HOLZSTR. / LETTEALLEE / PROVINZSTR.,1,2018,12,13.3777555,52.5636178,,3,,,4610131-4610176-4637776
HUBERTUSWEG / ORANIENBURGER CHAUSSEE / STAEHLEWEG,1,2018,12,13.2903817,52.6558407,,3,,,4480729-4713950-28573180
JEAN-JAURÈS-STR.,1,2018,12,13.3221015772507,52.6043601298565,0.0,1,655.57062128539,1311.14124257078,4766077
KLEMKESTR.,3,2018,12,13.3682037770906,52.5744379092409,0.4993222552165076,1,1929.56855369212,2895.660585559836,4071972
KNIGGEWEG,1,2018,12,13.2848533461547,52.6395542703369,0.0,1,363.586464577963,727.172929155926,6247950
KOPENHAGENER STR.,3,2018,12,13.3623785911644,52.5791549550929,0.0,1,1136.77251889739,2273.54503779478,33927189
KÜHNEMANNSTR. / SCHWABSTR. / PROVINZSTR.,1,2018,12,13.378409,52.5660087,,3,,,4610131-4637771-8913248
LETTEALLEE / REGINHARDSTR.,1,2018,12,13.373732,52.5633309,,2,,,4610134-4610176
LINDAUER ALLEE,1,2018,12,13.3455363011322,52.574611404745,1.0,1,3707.63256135087,3707.63256135087,4067951
LINDAUER ALLEE / RESIDENZSTR.,2,2018,12,13.3590196,52.573317599999996,,2,,,4067951-4594653
MARKGRAFENSTR. / SENHEIMER STR.,1,2018,12,13.2922147,52.6378355,,2,,,6247951-28276120
MARKSTR.,5,2018,12,13.3647787581342,52.5606746760514,0.8954126285359881,1,1446.81202742342,1598.1302943741534,4610040
MARKSTR. / PANKOWER ALLEE / RESIDENZSTR.,2,2018,12,13.3643706,52.5638211,,3,,,4594653-4610040-10755765
MARKSTR. / WALDERSEESTR.,1,2018,12,13.3646503,52.5613036,,2,,,4610040-183583120
MAUSCHBACHER STEIG / ORANIENBURGER STR.,1,2018,12,13.3306926,52.6011457,,2,,,4071964-39493947
MAXIMILIANKORSO,1,2018,12,13.2786305251737,52.6341688572491,0.0,1,1393.3939431933,2786.7878863866,16885071
ORANIENBURGER CHAUSSEE / SCHÖNFLIEßER STR.,1,2018,12,13.3017643,52.6429864,,2,,,4480729-8069374
ORANIENBURGER STR.,3,2018,12,13.3339146277492,52.5907155628614,0.6405869315687691,1,6455.61860384759,8775.85229487819,4071964
ORANIENBURGER STR. / SCHLITZER STR.,1,2018,12,13.3323428,52.5984696,,2,,,4071964-4802791
ORANIENBURGER STR. / TECHOWPROMENADE,1,2018,12,13.3334143,52.5930615,,2,,,4071964-36828659
ORANIENDAMM,4,2018,12,13.3206406689566,52.6097525201938,0.0,1,993.393154641189,1986.786309282378,9774896
ORANIENDAMM / WAIDMANNSLUSTER DAMM / ZABEL-KRÜGER-DAMM,3,2018,12,13.3238076,52.6078615,,3,,,4540101-4802391-9774896
ÖSCHELBRONNER WEG / WITTENAUER STR.,1,2018,12,13.3423715,52.6075353,,2,,,4802550-4802588
PROVINZSTR.,2,2018,12,13.3788598376203,52.5676572039137,0.0,1,1554.46301566728,3108.92603133456,4610131
RASCHDORFFSTR.,1,2018,12,13.3688077868594,52.5699127230954,0.0,1,1125.66824953127,2251.33649906254,4637898
REGINHARDSTR.,2,2018,12,13.3732275590503,52.5655265890415,0.0,1,2076.11870149015,4152.2374029803,4610134
RESIDENZSTR.,13,2018,12,13.3637448991295,52.5650633341418,0.9314703153014364,1,3896.16245265195,4163.16523706657,4594653
RESIDENZSTR. / RITTERLANDWEG,1,2018,12,13.3688645,52.5605939,,2,,,4594653-4610132
RITTERLANDWEG,2,2018,12,13.3727949192303,52.5606666951506,0.17160766193978896,1,603.253622400988,1102.984301105034,4610132
ROBINIENWEG / TEGELER STR.,1,2018,12,13.3130001,52.6137608,,2,,,4804482-22900000
ROEDERNALLEE,2,2018,12,13.3430967289215,52.5840282275831,0.33835249206134144,1,3150.7399577959,5235.4191990343115,4068065
ROEDERNALLEE / SCHMITZWEG,1,2018,12,13.3414797,52.5860609,,2,,,4068065-21258908
SCHILDOWER STR.,1,2018,12,13.3198318,52.6230157,0.0,1,1203.9024032394,2407.8048064788,4805066
SCHLUCHSEESTR.,1,2018,12,13.3337113976828,52.606249390468,0.0,1,1130.51502613218,2261.03005226436,4802554
SCHÖNFLIEßER STR.,2,2018,12,13.2955447817736,52.6425378518695,0.1656360652691318,1,1946.79655947586,3571.1333969606553,8069374
SCHULZENDORFER STR. / BRANDTSTR. / HEINSESTR.,1,2018,12,13.3110499,52.6130517,,3,,,4804662-20547483-28793517
SCHULZENDORFER STR. / ELSENBRUCHSTR.,1,2018,12,13.301397,52.6112763,,2,,,4804532-4804662
SENFTENBERGER RING,3,2018,12,13.3563828902757,52.6051791172156,0.0,1,3586.17470294426,7172.34940588852,4802807
SIGISMUNDKORSO,1,2018,12,13.2778896687717,52.6301936082371,0.16006146942698007,1,1648.31938461506,3032.8063464436577,16857795
SILVESTERWEG,1,2018,12,13.3087875732854,52.6227860495441,0.0,1,1115.66640730991,2231.33281461982,57743550
SOMMERSTR. / KLEMKESTR.,3,2018,12,13.3732825,52.5747774,,2,,,4071972-4637937
TITISEESTR.,1,2018,12,13.3331735267691,52.6075223117806,0.0,1,725.429747618788,1450.859495237576,4802552
VELTHEIMSTR.,1,2018,12,13.3212808902006,52.6260457649264,0.0,1,1538.60796678454,3077.21593356908,4805075
WAIDMANNSLUSTER DAMM,2,2018,12,13.2982953754575,52.5983526201128,0.512655784186397,1,5191.09875133036,7720.950701508427,4540101
WAIDMANNSLUSTER DAMM / AM DIANAPLATZ,1,2018,12,13.314346,52.605377,,2,,,4540101-4802336
WALDERSEESTR.,1,2018,12,13.3624293,52.5609381,0.0,1,312.029521366622,624.059042733244,183583120
WELFENALLEE,1,2018,12,13.2854727882372,52.6282023179114,0.0,1,1107.06435884051,2214.12871768102,10620102
WENTOWSTEIG,1,2018,12,13.3559278500767,52.5937456285652,0.0,1,301.60222007138,603.20444014276,4765383
WILHELM-GERICKE-STR.,1,2018,12,13.3371566593811,52.5861631483707,0.0,1,788.777510985286,1577.555021970572,4675276
WILHELMSRUHER DAMM,6,2018,12,13.3528468625584,52.596510926761,0.27659169965959907,1,4113.8691101052,7089.876170869281,4765110
ZEHNTWERDERWEG,1,2018,12,13.3315964959609,52.6136720001652,0.0,1,2023.6200176748,4047.2400353496,332561057
ZELTINGER PLATZ,1,2018,12,13.2905184683848,52.6334265033681,0.8775608047907644,1,483.839355508222,543.0802568072039,4902505
ZELTINGER PLATZ / ZELTINGER PLATZ,1,2018,12,13.2905184683848,52.6334265033681,0.8775608047907644,1,483.839355508222,543.0802568072039,4902505
AM BÜRGERPARK / SCHÜTZENSTR.,1,2018,13,13.3831064,52.5724142,,2,,,4764176-4764179
AM BÜRGERPARK / WILHELM-KUHR-STR.,3,2018,13,13.3906803,52.5677828,,2,,,4764176-10749740
AM FEUCHTEN WINKEL,1,2018,13,13.4309477577749,52.5801043479474,0.13432689220418337,1,1748.07480245835,3261.336149362028,4776197
AM FEUCHTEN WINKEL / PASEWALKER STR.,1,2018,13,13.4287011,52.5779514,,2,,,4776197-4776203
AM IGELGRUND / AM MEISENWINKEL / FRIEDRICH-ENGELS-STR. / STRAßE 87,1,2018,13,13.383616870478482,52.58853557413119,,4,,,4764795-4764872-161797265-168352956
AM POSSEBERG / SCHÖNERLINDER STR.,2,2018,13,13.4351816,52.6288986,,2,,,9711754-25565412
AM SCHLOßPARK,2,2018,13,13.4114578404479,52.5767720807845,0.0,1,639.114917347733,1278.229834695466,4764644
AM SCHLOßPARK / OSSIETZKYSTR. / PARKSTR.,2,2018,13,13.4075487,52.5738855,,3,,,4764644-4764656-4764658
ANGERWEG,1,2018,13,13.3795223008017,52.5883136071102,0.0,1,858.321241774921,1716.642483549842,4764920
ANLAGE EINIGKEIT / BLANKENFELDER CHAUSSEE / ROSENTHALER WEG,2,2018,13,13.4021672,52.6028494,,2,,,4407913-4803116
ARNOLD-ZWEIG-STR. / MAX-LINGNER-STR.,1,2018,13,13.4158821,52.5620246,,2,,,4632071-33775944
ARNOUXSTR.,1,2018,13,13.4232307000479,52.6080409261364,0.0,1,731.119713900206,1462.239427800412,16419437
ARNOUXSTR. / ROSENTHALER WEG,2,2018,13,13.42470075,52.6073394,,2,,,4407913-16419437
AUBERTSTR. / PETITWEG / BLANKENFELDER STR.,1,2018,13,13.416502514503925,52.607920602878224,,3,,,16419668-16419741-35313212
BAHNHOFSTR. / BLANKENBURGER WEG / PANKSTR.,2,2018,13,13.4366685,52.5925359,,3,,,4776771-4776775-19435661
BAUMBACHSTR. / SCHONENSCHE STR.,1,2018,13,13.420796,52.5539903,,2,,,4631710-4631713
BERLINER STR.,8,2018,13,13.4126911354639,52.562805424631,1.0,1,3900.67563680965,3900.67563680965,4631700
BERLINER STR. / BINZSTR.,1,2018,13,13.413012,52.5630239,,2,,,4631700-114586158
BERLINER STR. / BORKUMSTR.,1,2018,13,13.4127589,52.5650428,,2,,,4631700-123959488
BERLINER STR. / BREITE STR.,2,2018,13,13.4098491,52.5710863,,2,,,4631700-4631947
BERLINER STR. / BRENNERSTR. / MÜHLENSTR. / VINETASTR.,3,2018,13,13.413202876349382,52.5588259007258,,4,,,4631700-10575630-35573583-146173206
BERLINER STR. / BUCHHOLZER STR.,1,2018,13,13.40800005,52.576381049999995,,2,,,4631700-4777064
BERLINER STR. / ELSA-BRÄNDSTRÖM-STR.,1,2018,13,13.4134024,52.5599309,,2,,,4631700-23845949
BERLINER STR. / FLORASTR.,2,2018,13,13.4121323,52.5673646,,2,,,4631700-4632868
BERLINER STR. / GRANITZSTR. / KISSINGENSTR.,4,2018,13,13.41301975,52.5663531,,3,,,4631700-4632067-144945039
BERLINER STR. / HADLICHSTR.,2,2018,13,13.4120591,52.5682486,,2,,,4631700-4776148
BERLINER STR. / MASURENSTR.,1,2018,13,13.4127031,52.5627262,,2,,,4631700-126295932
BERLINER STR. / MAXIMILIANSTR.,1,2018,13,13.4131121,52.56114225,,2,,,4631700-4631994
BERLINER STR. / SAMLÄNDISCHE STR.,1,2018,13,13.4131382,52.56212,,2,,,4631700-126293904
BERLINER STR. / SCHULSTR.,1,2018,13,13.4113011,52.5696287,,2,,,4631700-172248643
BEUTHSTR. / DIETZGENSTR. / PLATANENSTR.,2,2018,13,13.402643099999999,52.585532900000004,,3,,,4764689-4764829-4777089
BEUTHSTR. / WALDOWSTR.,1,2018,13,13.4070531,52.5864433,,2,,,4777089-4777104
BINZSTR. / NEUMANNSTR.,1,2018,13,13.4214592,52.5637216,,2,,,4631542-114586158
BINZSTR. / PRENZLAUER PROMENADE,1,2018,13,13.4270245,52.5643292,,2,,,4484351-114586158
BLANKENBURGER STR.,2,2018,13,13.4182189107498,52.5842538605061,0.10296397652292044,1,2564.71732871373,4865.361162605852,4776616
BLANKENBURGER STR. / BUCHHOLZER STR.,1,2018,13,13.406151,52.5816758,,2,,,4776616-4777064
BLANKENBURGER STR. / DIETZGENSTR. / OSSIETZKYPLATZ,2,2018,13,13.40400545,52.5812048,,3,,,4764689-4776616-26795568
BLANKENBURGER STR. / HANS-JÜRGEN-STR.,1,2018,13,13.4277204,52.586959,,2,,,4776616-4776617
BLANKENBURGER STR. / KLOTHILDESTR.,1,2018,13,13.4145008,52.5831408,,2,,,4776616-4776658
BLANKENBURGER STR. / LINDENBERGER STR.,1,2018,13,13.4176446,52.5840881,,2,,,4776616-22875171
BLANKENBURGER STR. / PASEWALKER STR.,1,2018,13,13.4301993,52.58852,,2,,,4776203-4776616
BLANKENBURGER STR. / STRAßE 199,1,2018,13,13.38674005,52.5815337,,2,,,4764872-4776616
BLANKENBURGER STR. / ZIMBELSTR.,1,2018,13,13.429443,52.5885936,,2,,,4776616-4777056
BLANKENFELDER CHAUSSEE / HAUPTSTR.,2,2018,13,13.38573035,52.6099402,,2,,,4045656-4803116
BLANKENFELDER STR.,1,2018,13,13.4216779968797,52.605462680708,0.0,1,1483.03504521788,2966.07009043576,35313212
BLANKENFELDER STR. / ROSENTHALER WEG,1,2018,13,13.4200029,52.606282,,2,,,4407913-35313212
BORKUMSTR. / NEUMANNSTR.,1,2018,13,13.4208978,52.5659011,,2,,,4631542-123959488
BREHMESTR.,1,2018,13,13.3983210963762,52.5618574378189,0.0,1,779.931660744242,1559.863321488484,23926878
BREITE STR.,3,2018,13,13.4078837440488,52.5702369117003,0.8983843804885796,1,2333.03542682403,2570.108267062845,4631947
BUCHER STR. / HAUPTSTR. / SCHÖNERLINDER STR. / TRIFTSTR.,2,2018,13,13.415061034651833,52.61048106618751,,4,,,4045656-9189975-9711754-9713563
BUCHER STR. / PANKGRAFENSTR.,1,2018,13,13.4199605,52.5924494,,2,,,4764651-9189975
BUCHHOLZER STR.,1,2018,13,13.4133400077843,52.5884501635325,0.0,1,2145.56641293899,4291.13282587798,4777064
BUCHHOLZER STR. / GRUMBKOWSTR.,1,2018,13,13.4194235,52.5914504,,2,,,4776633-4777064
BUCHHOLZER STR. / HERTHAPLATZ / WACKENBERGSTR.,1,2018,13,13.409300725,52.584752175000006,,3,,,4777029-4777064-4777065
BUCHHORSTER STR. / HAUPTSTR. / KASTANIENALLEE,3,2018,13,13.3710173,52.5907624,,3,,,4045656-4777290-35149993
BUCHHORSTER STR. / HIELSCHERSTR.,1,2018,13,13.3695131,52.5910146,,2,,,22965573-35149993
CUNISTR.,1,2018,13,13.4238236517153,52.608815097676,0.0,1,680.832977500654,1361.665955001308,16308934
DAMEROWSTR.,1,2018,13,13.4224367393929,52.5735566259699,0.01934658384264479,1,1203.73562731175,2384.1830823853347,4631946
DIETZGENSTR.,3,2018,13,13.4027189173283,52.5929097570199,0.3670647247494517,1,3530.95233983343,5765.81663094247,4764689
DIETZGENSTR. / KUCKHOFFSTR.,1,2018,13,13.4030685,52.5837865,,2,,,4764689-4764815
DIETZGENSTR. / MITTELSTR.,1,2018,13,13.4025139,52.5922152,,2,,,4764689-22875381
DOLOMITENSTR.,1,2018,13,13.4039927394975,52.5612175838197,0.0,1,825.325632023334,1650.651264046668,4631988
DUSEKESTR. / FLORASTR.,1,2018,13,13.4081274,52.565864,,2,,,4632868-144842130
ELSA-BRÄNDSTRÖM-STR.,3,2018,13,13.419372970534,52.5597351515913,0.37549239100950454,1,1276.47244314594,2073.639196557267,23845949
ELSA-BRÄNDSTRÖM-STR. / ESCHENGRABEN,1,2018,13,13.4256081,52.5603863,,2,,,23712169-23845949
ELSA-BRÄNDSTRÖM-STR. / NEUMANNSTR. (ENDE),1,2018,13,13.422344200000001,52.559841649999996,,2,,,4631542-23845949
ELSA-BRÄNDSTRÖM-STR. / PRENZLAUER PROMENADE,6,2018,13,13.4279251,52.5606026,,2,,,4484351-23845949
ESPLANADE,1,2018,13,13.4068178623572,52.5578541025562,0.0,1,955.331126850876,1910.662253701752,123384345
ESPLANADE / STAVANGERSTR.,1,2018,13,13.4127773,52.5575618,,2,,,4782311-123384345
FERDINAND-BUISSON-STR.,1,2018,13,13.4420866663799,52.5958185368406,0.0,1,1401.29438173821,2802.58876347642,19435637
FLORASTR.,5,2018,13,13.4039660910225,52.5655126115084,0.05352567918986604,1,1220.95684186975,2376.5611395169076,4632868
FLORASTR. / GAILLARDSTR.,1,2018,13,13.397543,52.5658427,,2,,,4632868-23926912
FLORASTR. / GRUNOWSTR.,1,2018,13,13.4102605,52.5668824,,2,,,4632868-4637744
FLORASTR. / MÜHLENSTR.,3,2018,13,13.4065512,52.5653776,,2,,,4632868-10575630
FRIEDRICH-ENGELS-STR.,2,2018,13,13.386663299725,52.5901213725765,0.3549586547080942,1,4300.16967521177,7073.956907493826,4764795
FRIEDRICH-ENGELS-STR. / NORDENDSTR.,1,2018,13,13.3881433,52.5888589,,2,,,4764795-38304188
FRIEDRICH-ENGELS-STR. / PASTOR-NIEMÖLLER-PLATZ,1,2018,13,13.3974406,52.5800147,,2,,,4764196-4764795
FRIEDRICH-ENGELS-STR. / UHLANDSTR.,2,2018,13,13.37365445,52.598295050000004,,2,,,4764795-4765039
FRIESENSTR.,1,2018,13,13.383778550967,52.5789527966892,0.0,1,1395.36499916571,2790.72999833142,4764802
FRIESENSTR. / GERMANENSTR. / WALHALLASTR.,1,2018,13,13.3755987,52.581141,,3,,,4764802-4764812-4764861
GALENUSSTR. / PASEWALKER STR.,1,2018,13,13.4287919,52.5816379,,2,,,4776149-4776203
GERMANENSTR. / HEEGERMÜHLER WEG,1,2018,13,13.3746156,52.5842837,,2,,,4764861-4764864
GRABBEALLEE,7,2018,13,13.3987770771168,52.5754816674013,1.0,1,2026.23871962676,2026.23871962676,4764190
GRABBEALLEE / HEINRICH-MANN-STR. / SCHÖNHOLZER STR. / SCHÖNHOLZER BRÜCKE (PANKE),3,2018,13,13.398255333333333,52.57101316666667,,4,,,4764162-4764166-4764190-184581435
GRABBEALLEE / HOMEYERSTR.,2,2018,13,13.3991394,52.5733537,,2,,,4764190-4764201
GRABBEALLEE / TSCHAIKOWSKISTR.,1,2018,13,13.3982868,52.5768303,,2,,,4764190-4764208
GRANITZSTR.,1,2018,13,13.4202396273402,52.5698065082405,0.0,1,1314.96047011032,2629.92094022064,144945039
GÜLLWEG,3,2018,13,13.4013849823282,52.5788844415717,0.0,1,396.046759776816,792.093519553632,4764684
GÜLLWEG / WALDSTR. / HERMANN-HESSE-STR.,1,2018,13,13.400400574999999,52.580394975,,3,,,4764174-4764684-4777277
HADLICHSTR.,2,2018,13,13.4149689916764,52.5695737197567,0.0,1,646.112459640602,1292.224919281204,4776148
HAUPTSTR.,4,2018,13,13.3738404612204,52.5951318680356,0.0,1,3694.17264807182,7388.34529614364,4045656
HAUPTSTR. / LESSINGSTR. (ENDE),1,2018,13,13.369937,52.5893524,,2,,,4045656-4765050
HEINRICH-BÖLL-STR. / DIETZGENSTR. / UHLANDSTR.,1,2018,13,13.394055625,52.592518424999994,,3,,,4764689-4765039-4777119
HEINRICH-MANN-PLATZ / HEINRICH-MANN-STR.,1,2018,13,13.3936025,52.5726962,,2,,,4764166-217342728
HEINRICH-MANN-STR. / HERMANN-HESSE-STR.,3,2018,13,13.389674,52.5743269,,2,,,4764166-4764174
HERMANN-HESSE-STR.,1,2018,13,13.3951288092666,52.5777752858715,0.4198087250012873,1,2754.04452974792,4351.917136865596,4764174
HERMANN-HESSE-STR. / PASTOR-NIEMÖLLER-PLATZ,1,2018,13,13.3985082,52.5799107,,2,,,4764174-4764196
HERTHAPLATZ / SIEGFRIEDSTR. / WACKENBERGSTR.,1,2018,13,13.4096808,52.5847314,,3,,,4777029-4777065-4777076
HEYNSTR.,1,2018,13,13.4027461679334,52.5639047510231,0.0,1,373.766794956209,747.533589912418,23926904
HIELSCHERSTR.,1,2018,13,13.3676074434087,52.5886657589344,0.0,1,1076.52897694168,2153.05795388336,22965573
HOMEYERSTR. / HERMANN-HESSE-STR.,1,2018,13,13.3923742,52.5755123,,2,,,4764174-4764201
KAMISARDENPLATZ / ZEUSCHELSTR. / TRIFTSTR.,1,2018,13,13.431395,52.6127853,,2,,,9713563-16309314
KAVALIERSTR.,2,2018,13,13.4102658533614,52.5735315922228,0.4626209199736878,1,577.739649904536,888.2048514649593,4764665
KIRCHSTR.,1,2018,13,13.3975342271616,52.5937979768469,0.0,1,782.020948506813,1564.041897013626,22875391
KISSINGENSTR. / PRENZLAUER PROMENADE,2,2018,13,13.4276313,52.5679385,,2,,,4484351-4632067
KREUZSTR. / PARKSTR. / SCHÖNHOLZER STR.,1,2018,13,13.3988273,52.57060165,,3,,,4764162-4764188-4764656
KURZE STR. / THULESTR.,1,2018,13,13.4221673,52.5550755,,2,,,35573545-75743336
LAUDAER STR. / PRENZLAUER PROMENADE,1,2018,13,13.4269223,52.5650536,,2,,,4484351-8004060
LEHMWEG / DIETZGENSTR.,1,2018,13,13.4026974,52.6019228,,2,,,4764689-43232987
LESSINGSTR. / UHLANDSTR.,1,2018,13,13.3650803,52.5900822,,2,,,4765039-4765050
LINDENBERGER STR.,1,2018,13,13.4187301962067,52.5826860817823,0.0,1,347.891005482183,695.782010964366,22875171
LUDWIG-QUIDDE-STR. / AUGUST-SIEBKE-STR.,1,2018,13,13.4429051,52.6020945,,2,,,16418955-16419143
MAJAKOWSKIRING,1,2018,13,13.4027523390156,52.5754496790965,0.8696709026095596,1,1069.47202488165,1208.855348568802,4764679
MAJAKOWSKIRING / OSSIETZKYSTR.,1,2018,13,13.4065938,52.5757748,,2,,,4764658-4764679
MASURENSTR. / MÜHLENSTR.,2,2018,13,13.409734,52.5626734,,2,,,10575630-126295932
MAXIMILIANSTR.,1,2018,13,13.4079746511869,52.5611980498767,0.0,1,753.014492760369,1506.028985520738,4631994
MÜHLENSTR.,6,2018,13,13.4082802290806,52.5637548480216,0.043615298564918754,1,1416.25201756827,2770.7337805471316,10575630
MÜHLENSTR. / BREITE STR.,6,2018,13,13.4034793,52.5693257,,2,,,4631947-10575630
MÜHLENSTR. / ZILLERTALSTR.,1,2018,13,13.4116379,52.5603246,,2,,,4631995-10575630
NANTESSTR. / PETITWEG / ROSENTHALER WEG,4,2018,13,13.4170335,52.6055473,,3,,,4407913-16419741-16420774
NEUE SCHÖNHOLZER STR.,1,2018,13,13.4021751599293,52.5674118224112,1.0,1,406.461819327481,406.461819327481,4632867
NEUMANNSTR.,2,2018,13,13.4218622435833,52.5611628204324,0.809624962975869,1,3223.00934815467,3836.5898721387357,4631542
NEUMANNSTR. / ARNOLD-ZWEIG-STR.,4,2018,13,13.421629549999999,52.56260545,,2,,,4631542-4632071
OSSIETZKYSTR.,3,2018,13,13.4076943893072,52.573592896293,0.0,1,588.648726662505,1177.29745332501,4764658
OSSIETZKYSTR. / BREITE STR.,4,2018,13,13.4089668,52.5709845,,2,,,4631947-4764658
PANKGRAFENSTR.,2,2018,13,13.4066125995954,52.5718797120467,0.0,1,169.741333779997,339.482667559994,4764651
PARKSTR.,1,2018,13,13.4029930164993,52.5726346964793,0.0,1,706.196445748677,1412.392891497354,4764656
PASEWALKER STR.,3,2018,13,13.4301096503786,52.5882470834517,0.21685152830586021,1,2677.35803619867,4774.126890425682,4776203
PASEWALKER STR. / SCHLOßALLEE,3,2018,13,13.428315,52.5830142,,2,,,4776203-4776636
PFARRER-HURTIENNE-PLATZ / HAUPTSTR. / MÜHLENSTR.,1,2018,13,13.3910993,52.582249950000005,,2,,,4045656-10575630
PLATANENSTR.,1,2018,13,13.3902282890295,52.5837063597294,0.0,1,1759.82371933943,3519.64743867886,4764829
PRENZLAUER PROMENADE,3,2018,13,13.4273974,52.5660103,0.9041940239263967,1,7442.74181685929,8155.8009612873175,4484351
PRENZLAUER PROMENADE / TINIUSSTR.,1,2018,13,13.429231,52.5733745,,2,,,4484351-4684853
PROVINZSTR. / STRAßE VOR SCHÖNHOLZ,1,2018,13,13.3807243,52.5745397,,2,,,4610131-23984497
QUICKBORNER STR.,1,2018,13,13.3635339047381,52.6068414902183,0.09189677870713885,1,2773.71389217812,5292.532412609831,4765339
QUICKBORNER STR. / WILHELMSRUHER DAMM,1,2018,13,13.3739802,52.5976344,,2,,,4765110-4765339
ROLANDSTR.,1,2018,13,13.417145180353,52.5823404194552,0.0,1,1025.67304541294,2051.34609082588,4776624
ROLANDSTR. / SIEGFRIEDSTR.,1,2018,13,13.4123031,52.5809741,,2,,,4776624-4777076
SCHILDOWER STR.,1,2018,13,13.3841308242046,52.6272990601114,0.0,1,2003.15775296249,4006.31550592498,20821970
SCHLOßALLEE,1,2018,13,13.423964340646,52.5821291817187,0.0,1,789.678808441494,1579.357616882988,4776636
SCHONENSCHE STR.,1,2018,13,13.4193684527847,52.5541432905621,0.0,1,616.490834146172,1232.981668292344,4631710
SCHONENSCHE STR. / TRELLEBORGER STR.,1,2018,13,13.4184474,52.554242,,2,,,4631710-123943333
SCHÖNHAUSER STR.,2,2018,13,13.4265734468414,52.5962496478495,0.0,1,1375.86402918338,2751.72805836676,4777025
SCHÖNHOLZER STR.,1,2018,13,13.3998184656623,52.5701328011917,1.0,1,556.770168619206,556.770168619206,4764162
SCHÜTZENSTR. / STRAßE VOR SCHÖNHOLZ / HERMANN-HESSE-STR.,1,2018,13,13.3836435,52.5727808,,3,,,4764174-4764179-23984497
SIEGFRIEDSTR.,1,2018,13,13.4113526482232,52.5823462908104,0.0,1,576.027777561018,1152.055555122036,4777076
STRAßE 160,1,2018,13,13.368630146528,52.5808539529996,0.0,1,183.755753330817,367.511506661634,4764872
STRAßE VOR SCHÖNHOLZ,2,2018,13,13.3805100266029,52.5747189883749,0.0,1,632.286525720603,1264.573051441206,23984497
THULESTR.,1,2018,13,13.4220296548107,52.5550761858744,0.0,1,1006.91675282559,2013.83350565118,35573545
TIRIOTSTR. / ROSENTHALER WEG,2,2018,13,13.4231424,52.6071056,,2,,,4407913-16419457
TRELLEBORGER STR.,1,2018,13,13.4183859381268,52.5576947466739,0.0,1,1001.97769794627,2003.95539589254,123943333
TRESKOWSTR. / WALDSTR.,1,2018,13,13.414139299999999,52.57118805,,2,,,4684837-4777277
TRIENTER STR.,1,2018,13,13.403188066434,52.5593934336153,0.0,1,300.606788708808,601.213577417616,4631991
VEREINSSTEG,1,2018,13,13.3763817726382,52.5771450926913,0.0,1,138.763613350716,277.527226701432,27154460
WIESENKRÄUTERWEG / BUNTSTEINWEG / DIETZGENSTR.,1,2018,13,13.402838225,52.600544675,,3,,,4764689-22875772-27147819
WILHELMSRUHER DAMM / FRIEDRICH-ENGELS-STR. / HAUPTSTR.,1,2018,13,13.3754667,52.597164649999996,,3,,,4045656-4764795-4765110
WILHELMSRUHER DAMM / UHLANDSTR.,1,2018,13,13.3694981,52.5973897,,2,,,4765039-4765110
WOLLANKSTR.,1,2018,13,13.3939346880871,52.5648348836596,0.023461843307731874,1,1548.42846053417,3060.527935154055,4632866
WOLLANKSTR. / FLORASTR.,1,2018,13,13.3957713,52.5659332,,2,,,4632866-4632868
WOLLANKSTR. / GÖRSCHSTR.,2,2018,13,13.3979363,52.5674301,,2,,,4632866-4632870
WOLLANKSTR. / NEUE SCHÖNHOLZER STR. / SCHÖNHOLZER STR. / BREITE STR.,2,2018,13,13.401432900000001,52.56924393333333,,4,,,4631947-4632866-4632867-4764162
AM STEINBERG / PRENZLAUER PROMENADE / THULESTR.,2,2018,13,13.429139875,52.556387825,,3,,,4484351-4631744-35573545
ALT-BUCH,2,2018,14,13.5011109769792,52.6355779931486,0.047602815556163705,1,1590.23180792968,3104.7641044149386,4684106
ALT-BUCH / PÖLNITZWEG,1,2018,14,13.5031149,52.6365293,,2,,,4684106-10949629
ERNST-LUDWIG-HEIM-STR.,1,2018,14,13.4988899123237,52.6264731377095,0.0,1,282.470455974646,564.940911949292,10953662
FRIEDRICH-RICHTER-STR.,1,2018,14,13.4926444307979,52.6268017551122,0.16874613178292722,1,753.270576093347,1379.4296562850445,10945009
KAROWER CHAUSSEE / ROBERT-RÖSSLE-STR. / WOLFGANG-HEINZ-STR.,1,2018,14,13.49825585,52.62818285,,3,,,6195888-10951433-10953274
KAROWER CHAUSSEE / THEODOR-BRUGSCH-STR.,2,2018,14,13.4992689,52.6306232,,2,,,10950296-10953274
KAROWER STR.,2,2018,14,13.5096495946263,52.620836368903,0.0,1,615.532565640397,1231.065131280794,6195996
LINDENBERGER WEG,1,2018,14,13.4816596567158,52.5945116539312,0.0,1,2596.48954970598,5192.97909941196,16237828
LINDENBERGER WEG / GEORG-BENJAMIN-STR.,1,2018,14,13.5019048,52.6116093,,2,,,16237828-128406003
LINDENBERGER WEG / SIEDLUNGSSTR.,1,2018,14,13.500437768386501,52.61283755671145,,2,,,10950037-16237828
PÖLNITZWEG / VIERECKWEG,1,2018,14,13.4976881,52.6406419,,2,,,10949629-11143242
RÖBELLWEG / WILTBERGSTR.,1,2018,14,13.48956815,52.63367825,,2,,,10416383-10946970
WILTBERGSTR.,1,2018,14,13.4859436772913,52.6293722870357,0.0,1,526.059534181228,1052.119068362456,10946970
WOLFGANG-HEINZ-STR. / ERNST-BUSCH-STR. / BRUNO-APITZ-STR.,1,2018,14,13.4921673,52.6282356,,3,,,6195888-10943907-10946365
ZEPERNICKER STR.,1,2018,14,13.5139052531064,52.6411694816616,0.0,1,1504.34053708502,3008.68107417004,9536788
ACHILLESSTR.,2,2018,14,13.4899434304182,52.6171790676457,0.0,1,1992.91336159208,3985.82672318416,10993994
ACHILLESSTR. / BUCHER CHAUSSEE,3,2018,14,13.4876476,52.6181329,,2,,,10993994-10998395
ALT-BLANKENBURG / PRIESTERSTEGE,1,2018,14,13.4532729,52.5933192,,2,,,4684107-16239612
ALT-KAROW,1,2018,14,13.4835448939478,52.6126084280225,0.0,1,802.070303763557,1604.140607527114,10998543
ALT-KAROW / FRUNDSBERGSTR.,1,2018,14,13.4828471,52.6115509,,2,,,10998543-11013635
AM STEINBERG / HEINERSDORFER STR.,1,2018,14,13.445714800000001,52.572369800000004,,2,,,4631744-25528918
AMALIENSTR. / ROELCKESTR.,1,2018,14,13.4523321,52.5578167,,2,,,4068168-4684959
AMALIENSTR. / SCHÖNSTR.,1,2018,14,13.4554467,52.5560308,,2,,,4684959-4684968
ANTONPLATZ / LANGHANSSTR. / BERLINER ALLEE,1,2018,14,13.450797750282126,52.54843119594398,,3,,,11379802-30860008-34129302
BAHNHOFSTR.,2,2018,14,13.440779764044,52.591440287889,0.17049866787950868,1,2143.74173436424,3921.9783587416696,4776771
BAHNHOFSTR. / HEINERSDORFER STR. / KRUGSTEGE,1,2018,14,13.4535509,52.5913985,,3,,,4684112-4776771-25528918
BAHNHOFSTR. / HUBERTUSDAMM,1,2018,14,13.4616228,52.6028075,,2,,,4776771-10999475
BAHNHOFSTR. / LANKER STR.,1,2018,14,13.4646181,52.60055975,,2,,,4776771-11014102
BAHNHOFSTR. / RUDELSBURGSTR.,1,2018,14,13.4421894,52.5909449,,2,,,4776771-9189984
BEHAIMSTR. / STREUSTR.,1,2018,14,13.4455249,52.5491634,,2,,,4631851-141220151
BERLINER ALLEE,2,2018,14,13.4614467960588,52.5506534124228,0.8429361347906825,1,5031.8119096136,5822.127737143788,11379802
BERLINER ALLEE / BERLINER ALLEE,1,2018,14,13.4614467960588,52.5506534124228,0.8429361347906825,1,5031.8119096136,5822.127737143788,11379802
BERNKASTELER STR. / GROßE SEESTR. / RENNBAHNSTR. / BERLINER ALLEE,1,2018,14,13.46659867136105,52.55698338486335,,4,,,4684925-6007924-11379802-18398010
BEUTHENER STR. / STEINAUER STR.,1,2018,14,13.4729986,52.6068892,,2,,,11014123-11014692
BIZETSTR.,1,2018,14,13.4578655722172,52.5486694914705,0.0,1,1267.8917579245,2535.783515849,4787341
BIZETSTR. / INDIRA-GANDHI-STR.,1,2018,14,13.4665335,52.55054,,2,,,4783730-4787341
BLANKENBURGER STR.,2,2018,14,13.444330614086,52.5736164188431,0.0,1,1647.83221915188,3295.66443830376,4783361
BLANKENBURGER STR. / ROMAIN-ROLLAND-STR.,1,2018,14,13.4396106,52.5679696,,2,,,4684850-4783361
BÖRNESTR. / CHARLOTTENBURGER STR. / MAX-STEINKE-STR. / PISTORIUSPLATZ,3,2018,14,13.449855633333334,52.55109256666666,,4,,,4631844-4631852-6180361-23008646
BRAUHAUSSTR. / PRENZLAUER PROMENADE,1,2018,14,13.4293829,52.555956,,2,,,4484351-142209309
BUCHER CHAUSSEE,1,2018,14,13.4885887352747,52.6192012927132,0.41424272433023185,1,1092.45067086828,1732.3615996396943,10998395
BUCHER CHAUSSEE / EREKWEG,2,2018,14,13.4914127,52.6223054,,2,,,10998395-11007525
BUCHER CHAUSSEE / HADUWEG,1,2018,14,13.4897738,52.6206072,,2,,,10998395-11008123
BUNDESSTR. 2 / AM LUCHGRABEN,1,2018,14,13.501480464241228,52.60105638865119,0.0,1,1077.57482136006,2155.14964272012,279127599
BUSCHALLEE / GARTENSTR.,1,2018,14,13.46325515,52.5743973,,2,,,4783468-16239534
BUSCHALLEE / HANSASTR.,2,2018,14,13.4798346,52.5532976,,2,,,4783464-4783468
BUSONISTR.,1,2018,14,13.480985607275,52.617379973117,0.0,1,1308.73196920369,2617.46393840738,11013652
BUSONISTR. / SCHÖNERLINDER WEG,1,2018,14,13.4815391,52.6178372,,2,,,11013652-11022844
CALIGARIPLATZ / GUSTAV-ADOLF-STR. / HEINERSDORFER STR. / PRENZLAUER PROMENADE,1,2018,14,13.439192366666665,52.568341366666665,,4,,,4484351-23008625-25528918-65940310
CHARLOTTENBURGER STR.,2,2018,14,13.4431891876097,52.5529675677214,0.0,1,1629.27723707314,3258.55447414628,23008646
CHARLOTTENBURGER STR. / FRIESICKESTR.,1,2018,14,13.4407162,52.553686,,2,,,4631759-23008646
CHARLOTTENBURGER STR. / GUSTAV-ADOLF-STR.,3,2018,14,13.4372973,52.55471,,2,,,23008625-23008646
CHOPINSTR.,1,2018,14,13.4648514435342,52.5461380589499,0.37850424229026647,1,607.813628430779,985.5672199786684,6083932
CHOPINSTR. / SMETANASTR.,1,2018,14,13.4609784,52.5454549,,2,,,4787350-6083932
FALKENBERGER STR.,2,2018,14,13.4788958755842,52.5561808614026,0.006711623358467096,1,2158.85638420043,4303.223337465084,4783466
FALKENBERGER STR. / PIESPORTER STR.,1,2018,14,13.4786307,52.5558196,,2,,,4783329-4783466
FRANKENSTEINSTR. / FRANKENSTR.,1,2018,14,13.4545814,52.6068219,,2,,,9189979-9189981
GARTENSTR.,1,2018,14,13.4559150727902,52.594646175453,0.0,1,428.5129252481,857.0258504962,16239534
GOETHESTR. / LANGHANSSTR.,1,2018,14,13.4372533,52.5528106,,2,,,4631756-30860008
GOUNODSTR.,2,2018,14,13.4599013008572,52.547169016982,0.0,1,1260.09549051089,2520.19098102178,4787358
GOYASTR. / LANGHANSSTR.,1,2018,14,13.441463,52.551485,,2,,,26283727-30860008
GREIFSWALDER STR. / GÜRTELSTR. / LEHDERSTR. / BERLINER ALLEE,2,2018,14,13.447976400000002,52.54698805,,4,,,4615034-4787318-11379802-24217891
GROßE SEESTR. / HUNSRÜCKSTR.,1,2018,14,13.4572897,52.5582441,,2,,,4684966-6007924
GROßE SEESTR. / PARKSTR.,1,2018,14,13.4600468,52.5569938,,2,,,6007924-6196952
GÜRTELSTR.,1,2018,14,13.4514616206584,52.5455128209813,0.0,1,861.449832515969,1722.899665031938,24217891
GÜRTELSTR. / MEYERBEERSTR.,1,2018,14,13.4501705,52.5460214,,2,,,22957980-24217891
GUSTAV-ADOLF-STR.,6,2018,14,13.44225368393,52.5569132686575,0.03357411753403079,1,1983.37959060896,3900.168961728217,23008625
GUSTAV-ADOLF-STR. / HAMBURGER PLATZ,1,2018,14,13.438901,52.5554235,,2,,,23008625-397205507
GUSTAV-ADOLF-STR. / RENNBAHNSTR.,1,2018,14,13.4543199,52.5621698,,2,,,4684925-23008625
HAAKONWEG / HELGIWEG,1,2018,14,13.4675868,52.567393,,2,,,22973160-141577317
HAMBURGER PLATZ / HAMBURGER PLATZ,3,2018,14,13.439154881942,52.5557244888231,0.0,1,132.774107821513,265.548215643026,397205507
HANSASTR.,3,2018,14,13.4812022366734,52.5539349485312,0.7375541419266417,1,7753.34436887411,9788.177484701515,4783464
HEINERSDORFER STR.,3,2018,14,13.4495457625949,52.585375026106,0.0,1,1611.48785991499,3222.97571982998,25528918
HEINERSDORFER STR. / JACOBSOHNSTR. / LANGHANSSTR.,1,2018,14,13.436914625,52.562077200000004,,3,,,4645566-25528918-30860008
HÖDURSTR. / ROMAIN-ROLLAND-STR.,1,2018,14,13.4381991,52.5693413,,2,,,4684850-4684873
HUBERTUSDAMM / MÖSERSTR.,1,2018,14,13.4757385,52.6195356,,2,,,10999475-11013864
INDIRA-GANDHI-STR.,1,2018,14,13.4678214309138,52.5462233779469,0.9756303803891785,1,2932.57962131784,3004.0454711678026,4783730
INDIRA-GANDHI-STR. / BERLINER ALLEE,2,2018,14,13.4655015,52.5520601,,2,,,4783730-11379802
INDIRA-GANDHI-STR. / MEYERBEERSTR.,1,2018,14,13.4665962,52.5496227,,2,,,4783730-22957980
INDRASTR.,1,2018,14,13.4332242681542,52.5676685977841,0.0,1,281.358424948035,562.71684989607,142721905
JACOBSOHNSTR.,1,2018,14,13.4354456655338,52.55621221241,0.0,1,628.528510142067,1257.057020284134,4645566
KAROWER DAMM / STRAßE 26 / TRESEBURGER STR.,1,2018,14,13.4759968,52.603655825000004,,3,,,11009464-16237667-76236116
LANGHANSSTR.,2,2018,14,13.4403889042993,52.5518167429125,0.2455469281892081,1,1642.60394537548,2881.871537732537,30860008
LANGHANSSTR. / ROELCKESTR.,1,2018,14,13.4426777,52.5511069,,2,,,4068168-30860008
LEHDERSTR.,2,2018,14,13.4397961339774,52.5498917328903,0.0,1,1256.78258435933,2513.56516871866,4787318
LEHDERSTR. / ROELCKESTR.,4,2018,14,13.4411805,52.549512,,2,,,4068168-4787318
LIEBERMANNSTR.,1,2018,14,13.4758632476948,52.5603049070817,0.0,1,1745.1694007717,3490.3388015434,4783334
LIEBERMANNSTR. / BERLINER ALLEE,2,2018,14,13.4670842,52.5599708,,2,,,4783334-11379802
LIEBERMANNSTR. / PIESPORTER STR.,1,2018,14,13.4775643,52.5605594,,2,,,4783329-4783334
LINDENALLEE / BERLINER ALLEE,1,2018,14,13.4620127,52.5506903,,2,,,6083536-11379802
MAHLERSTR. / TASSOSTR. / BERLINER ALLEE,1,2018,14,13.452760975,52.548716075,,3,,,4631848-6083156-11379802
MALCHOWER CHAUSSEE / PIESPORTER STR.,2,2018,14,13.4763857,52.568093,,2,,,4783329-24205990
MALCHOWER STR. / SARNER WEG,1,2018,14,13.4501494,52.5681587,,2,,,4783372-142061202
MAX-STEINKE-STR.,1,2018,14,13.4501168722276,52.5506880089005,0.0,1,399.572559218654,799.145118437308,4631852
MEYERBEERSTR.,1,2018,14,13.4583827428489,52.5478247876054,0.0,1,1184.14013289791,2368.28026579582,22957980
PARKSTR. / PISTORIUSSTR.,1,2018,14,13.4551426,52.5512016,,2,,,4631747-6196952
PASEDAGPLATZ / RENNBAHNSTR. / SCHÖNSTR.,1,2018,14,13.4605845,52.5595538,,3,,,4684925-4684968-4783335
PFANNSCHMIDTSTR. / RÖLÄNDER STR.,1,2018,14,13.4839616,52.6234582,,2,,,10994544-10994621
PIESPORTER STR.,1,2018,14,13.4778641707424,52.5590804489581,0.05755442887564328,1,2411.06093214178,4683.354629349764,4783329
PIESPORTER STR. / DARßER STR.,2,2018,14,13.4770695,52.5669757,,2,,,4783326-4783329
PISTORIUSSTR.,1,2018,14,13.4456268717497,52.5537924968824,0.11274543731964114,1,1996.68358559103,3768.2502071356503,4631747
PISTORIUSSTR. / ROELCKESTR.,1,2018,14,13.4453145,52.5538812,,2,,,4068168-4631747
RENNBAHNSTR.,3,2018,14,13.4581054931435,52.5605864431848,0.02624081294856113,1,1514.26366968554,2988.79182966006,4684925
RENNBAHNSTR. / ROELCKESTR.,1,2018,14,13.4571166,52.5609987,,2,,,4068168-4684925
ROELCKESTR.,2,2018,14,13.4532143077395,52.5582872140656,0.0,1,2576.24357152369,5152.48714304738,4068168
ROELCKESTR. / SCHWARZELFENWEG / DARßER STR.,2,2018,14,13.4653898,52.5670606,,3,,,4068168-4783326-8116206
ROELCKESTR. / STREUSTR.,4,2018,14,13.4419258,52.5503021,,2,,,4068168-4631851
ROMAIN-ROLLAND-STR.,2,2018,14,13.4388856483083,52.5686659037921,0.02958539858143118,1,2372.22497592079,4674.266730404137,4684850
ROMAIN-ROLLAND-STR. / STRAßE 16,1,2018,14,13.45969445,52.59456285,,2,,,4684850-11009464
ROMAIN-ROLLAND-STR. / WISCHBERGEWEG,1,2018,14,13.4483904,52.5646478,,2,,,4684850-4783366
ROSSINISTR. / BERLINER ALLEE,1,2018,14,13.4494149,52.5475323,,2,,,6083025-11379802
ROTHENBACHSTR.,5,2018,14,13.4333673018447,52.5706453415467,0.22378135756634643,1,835.823553777205,1484.605378004219,25833007
SMETANASTR.,1,2018,14,13.4599189876209,52.5472785591572,0.0,1,604.313992712833,1208.627985425666,4787350
SMETANASTR. / BERLINER ALLEE,1,2018,14,13.458399,52.5498264,,2,,,4787350-11379802
STRAßE 18,1,2018,14,13.4890629842812,52.6067364108805,0.0,1,881.542826637448,1763.085653274896,11009464
STRAßE 44 / STRAßE 52,1,2018,14,13.4837625,52.6090364,,2,,,11009464-11009464
TEICHBERGSTR. / BUCHER CHAUSSEE,2,2018,14,13.4870964,52.6174313,,2,,,10995524-10998395
TINO-SCHWIERZINA-STR.,2,2018,14,13.4352863035889,52.5631178072546,0.7106718443824314,1,2387.79196092869,3078.6474049826456,4684895
TRESKOWSTR.,2,2018,14,13.430969660474,52.5611038385014,0.0,1,472.484350460798,944.968700921596,4684837
WIGANDSTALER STR.,1,2018,14,13.442448222235,52.5594474457303,0.0,1,442.71665634404,885.43331268808,23008593
ZUM KAPPGRABEN / HOFZEICHENDAMM / ALT-KAROW / BUCHER CHAUSSEE / SCHÖNERLINDER WE,1,2018,14,13.487375749999998,52.61591606666667,,4,,,10998395-10998543-11008373-11009143
ZUR RINGALLEE / AN DER INDUSTRIEBAHN / ROELCKESTR.,2,2018,14,13.460951408808976,52.56409274336005,,3,,,4068168-4783341-37835088
ZUR RINGALLEE / NÜßLERSTR. / ROELCKESTR.,1,2018,14,13.4618663,52.5647854,,3,,,4068168-4783336-37835088
ZUR RINGALLEE / ZUR RINGALLEE,1,2018,14,13.4571645263963,52.5669417083403,0.0,1,2220.85934418894,4441.71868837788,37835088
AHLBECKER STR. / PRENZLAUER ALLEE,3,2018,15,13.4267382,52.5437084,,2,,,4484427-4631550
AM FALKPLATZ,2,2018,15,13.4057414,52.54630585,0.0,1,156.324855439332,312.649710878664,4631475
BEHMSTR.,2,2018,15,13.3953289551281,52.5506414571062,0.4864794445776924,1,1334.8391639125,2020.3065127642958,4215491
BEHMSTR. / MALMÖER STR. / SCHIVELBEINER STR.,2,2018,15,13.4037316,52.551416,,3,,,4215491-8658097-31579040
BERLINER STR.,2,2018,15,13.4126911354639,52.562805424631,1.0,1,3900.67563680965,3900.67563680965,4631700
BERLINER STR. / ESCHENGRABEN,3,2018,15,13.4146352,52.5561469,,2,,,4631700-23712169
BERLINER STR. / THULESTR.,3,2018,15,13.4148092,52.555014,,2,,,4631700-35573545
BERNAUER STR.,1,2018,15,13.3951764403349,52.5380184369245,0.0977170677706746,1,1520.73336512866,2892.865124955916,4597231
BORNHOLMER STR. / BJÖRNSONSTR. / MALMÖER STR.,4,2018,15,13.402571325,52.554493074999996,,3,,,4588954-24754366-31579040
BORNHOLMER STR. / DRIESENER STR. / NORDKAPSTR.,1,2018,15,13.406318375000001,52.55414715,,3,,,4588954-8149650-25836159
BORNHOLMER STR. / GOTLANDSTR. / SEELOWER STR.,2,2018,15,13.4110577,52.5540773,,3,,,4588954-4606155-8150017
BORNHOLMER STR. / SCHÖNFLIEßER STR. / STAVANGERSTR.,1,2018,15,13.4087318,52.5542098,,3,,,4588954-4606154-4782311
BORNHOLMER STR. / SCHÖNHAUSER ALLEE / WISBYER STR.,8,2018,15,13.4143553,52.553760350000005,,3,,,4068093-4588954-4615362
BUCHHOLZER STR. / MILASTR. / SCHÖNHAUSER ALLEE,2,2018,15,13.412670825,52.5452622,,3,,,4606275-4615362-4631478
CANTIANSTR.,1,2018,15,13.4108982984154,52.5447755780428,0.20546034969946309,1,592.048077901462,1062.4537506783945,4631473
CHORINER STR.,1,2018,15,13.408439306501,52.5346034611667,0.0,1,946.111804024358,1892.223608048716,4606230
CHORINER STR. / ODERBERGER STR. / SCHÖNHAUSER ALLEE / SREDZKISTR.,4,2018,15,13.411938449346868,52.53787485494519,,4,,,4606230-4606260-4615362-31352223
CHRISTINENSTR. / FEHRBELLINER STR.,2,2018,15,13.4088735,52.531274,,2,,,4606231-41927001
DÄNENSTR.,2,2018,15,13.4089583459469,52.54999363205,0.0,1,629.451237065845,1258.90247413169,4606156
DANZIGER STR.,1,2018,15,13.4314959293615,52.5365827257356,0.9788401892826187,1,5917.72743056924,6042.945422877139,4615031
DANZIGER STR. / EBERSWALDER STR. / KASTANIENALLEE / PAPPELALLEE / SCHÖNHAUSER AL,12,2018,15,13.412028900000001,52.540902933333335,,4,,,4068019-4615031-4631472-30859067
DANZIGER STR. / KNAACKSTR. / LYCHENER STR.,3,2018,15,13.414327100000001,52.540680550000005,,3,,,4606259-4615031-4631449
DANZIGER STR. / KOLLWITZSTR. / SENEFELDERSTR.,3,2018,15,13.4215453,52.5395042,,3,,,4606258-4615031-8150009
DUNCKERSTR.,2,2018,15,13.4239053,52.5459923,0.0,1,1397.67058058502,2795.34116117004,4631543
DUNCKERSTR. / KANZOWSTR.,1,2018,15,13.424135,52.5462269,,2,,,4631543-4631549
DUNCKERSTR. / KRÜGERSTR.,1,2018,15,13.4277412,52.5501825,,2,,,4631543-30129983
DUNCKERSTR. / STARGARDER STR.,4,2018,15,13.4226621,52.5446022,,2,,,4631543-11114396
DUNCKERSTR. / WICHERTSTR.,1,2018,15,13.4247315,52.5468988,,2,,,4631543-8658090
DUNCKERSTR. / WISBYER STR.,1,2018,15,13.4289587,52.5514749,,2,,,4068093-4631543
EBERSWALDER STR.,5,2018,15,13.4087666067581,52.5413229675304,0.2624845155019425,1,689.719959785143,1198.3991100940634,4631472
EBERSWALDER STR. / EBERSWALDER STR.,1,2018,15,13.4087666067581,52.5413229675304,0.2624845155019425,1,689.719959785143,1198.3991100940634,4631472
EBERSWALDER STR. / TOPSSTR.,2,2018,15,13.4079085,52.5419533,,2,,,4631472-28992603
ERICH-WEINERT-STR. / PRENZLAUER ALLEE,2,2018,15,13.4287765,52.5477669,,2,,,4484427-4615321
ERICH-WEINERT-STR. / SCHÖNHAUSER ALLEE / PAUL-ROBESON-STR.,1,2018,15,13.414189700000001,52.55208465,,3,,,4606152-4615321-4615362
ERICH-WEINERT-STR. / STAHLHEIMER STR.,1,2018,15,13.4220604,52.5500662,,2,,,4615321-10596628
FEHRBELLINER STR.,1,2018,15,13.405200546093,52.5327511342686,0.0,1,935.996215414574,1871.992430829148,41927001
FEHRBELLINER STR. / SCHÖNHAUSER ALLEE,2,2018,15,13.4110131,52.5305559,,2,,,4615362-41927001
FEHRBELLINER STR. / TEMPLINER STR.,1,2018,15,13.4077108,52.5316777,,2,,,4383744-41927001
GETHSEMANESTR. / STARGARDER STR.,1,2018,15,13.4163753,52.5471846,,2,,,8039004-11114396
GLEIMSTR.,5,2018,15,13.4041810715173,52.5468661374807,0.15734252306943278,1,1210.19257555,2229.970397863068,4606142
GLEIMSTR. / SCHÖNHAUSER ALLEE / STARGARDER STR.,7,2018,15,13.413405000000001,52.547653749999995,,3,,,4606142-4615362-11114396
GLEIMTUNNEL / GLEIMSTR. / SCHWEDTER STR.,1,2018,15,13.40032165,52.546521,,3,,,4606142-4606228-31349228
GNEISTSTR. / PAPPELALLEE / RAUMERSTR.,2,2018,15,13.4155587,52.5440232,,3,,,4606273-4606274-30859067
GNEISTSTR. / SCHÖNHAUSER ALLEE,2,2018,15,13.41273,52.5444158,,2,,,4606274-4615362
GREIFENHAGENER STR.,1,2018,15,13.416663,52.54913,0.09742756442365887,1,996.249464055787,1895.4367692702433,8039003
GREIFENHAGENER STR. / WICHERTSTR.,1,2018,15,13.4172306,52.5498272,,2,,,8039003-8658090
GREIFENHAGENER STR. / WISBYER STR.,1,2018,15,13.4198212,52.5530327,,2,,,4068093-8039003
GRELLSTR. / PRENZLAUER ALLEE / WICHERTSTR.,9,2018,15,13.427702275,52.545697625,,3,,,4484427-4615322-8658090
GUDVANGER STR. / TALSTR. / WISBYER STR.,10,2018,15,13.4273235,52.5524274,,3,,,4068093-4631541-4631716
HUMANNPLATZ / STAHLHEIMER STR. / WICHERTSTR.,2,2018,15,13.420587,52.5486914,,2,,,8658090-10596628
HUSEMANNSTR.,1,2018,15,13.4176498713812,52.5383926922724,0.0,1,372.439200467047,744.878400934094,183982273
KANZOWSTR. / PRENZLAUER ALLEE,1,2018,15,13.4273422,52.5449308,,2,,,4484427-4631549
KASTANIENALLEE,6,2018,15,13.4082459550556,52.5371799060945,0.11853422081790879,1,1030.28865012961,1938.4528378985717,4068019
KASTANIENALLEE / ODERBERGER STR.,2,2018,15,13.4097144,52.5385713,,2,,,4068019-31352223
KNAACKSTR. / SREDZKISTR.,1,2018,15,13.4151032,52.5384613,,2,,,4606259-4606260
KOLLWITZSTR.,6,2018,15,13.4171444662617,52.5355196621213,0.0,1,1064.97183397283,2129.94366794566,4606258
KOLLWITZSTR. / SAARBRÜCKER STR. / SCHÖNHAUSER ALLEE,6,2018,15,13.412358259233624,52.531280015012555,,3,,,4606254-4606258-4615362
KOLLWITZSTR. / SREDZKISTR.,2,2018,15,13.4200707,52.5381954,,2,,,4606258-4606260
KOLLWITZSTR. / WÖRTHER STR.,2,2018,15,13.4183472,52.5366031,,2,,,4606258-4606261
KUGLERSTR. / PRENZLAUER ALLEE,1,2018,15,13.4291574,52.5491968,,2,,,4484427-173017291
KUGLERSTR. / SCHÖNHAUSER ALLEE,1,2018,15,13.414514,52.5528194,,2,,,4615362-173017291
KURZE STR. / SCHERENBERGSTR. / WISBYER STR.,1,2018,15,13.422199200000001,52.552843225000004,,3,,,4068093-4631535-75743336
LETTESTR.,1,2018,15,13.4193602352627,52.5432485798963,1.0,1,253.839169101939,253.839169101939,4631450
MALMÖER STR. / PAUL-ROBESON-STR. / UECKERMÜNDER STR.,1,2018,15,13.4030996,52.5529814,,3,,,4606149-4606152-31579040
METZER STR. / SCHÖNHAUSER ALLEE / SCHWEDTER STR.,3,2018,15,13.4125997,52.53262,,3,,,4606228-4615362-23121446
ODERBERGER STR.,1,2018,15,13.4082125247354,52.5391373599292,0.0,1,588.217895577691,1176.435791155382,31352223
ODERBERGER STR. / SCHWEDTER STR.,1,2018,15,13.4047323,52.5403392,,2,,,4606228-31352223
OSTSEESTR. / PRENZLAUER ALLEE / PRENZLAUER PROMENADE / WISBYER STR.,6,2018,15,13.430462483333335,52.550874883333336,,4,,,4068093-4484351-4484427-4615358
PAPPELALLEE,2,2018,15,13.4158415714574,52.5442754730563,0.08331855436884975,1,921.276760073638,1765.7940723243228,30859067
PRENZLAUER ALLEE,3,2018,15,13.4240084102703,52.539048365723,0.9046553315013265,1,6170.45885414494,6758.7792080780955,4484427
RAUMERSTR.,1,2018,15,13.4201898561053,52.5420868395159,0.0,1,737.972209456488,1475.944418912976,4606273
RAUMERSTR. / SENEFELDERSTR.,1,2018,15,13.4228168,52.5414966,,2,,,4606273-8150009
SCHIVELBEINER STR.,1,2018,15,13.4089188734356,52.5509185443803,1.0,1,1414.67212076449,1414.67212076449,8658097
SCHÖNHAUSER ALLEE,35,2018,15,13.4123170668044,52.5411385898969,0.9719943111470492,1,5742.88513726539,5903.718591537881,4615362
SCHÖNHAUSER ALLEE / WICHERTSTR. / SCHIVELBEINER STR. (ENDE),8,2018,15,13.414095625000002,52.550591775,,3,,,4615362-8658090-8658097
SCHÖNHAUSER ALLEE / WÖRTHER STR.,1,2018,15,13.41239865,52.536071750000005,,2,,,4606261-4615362
SCHWEDTER STR.,2,2018,15,13.4050284833094,52.5390712778137,0.0,1,2348.94092287151,4697.88184574302,4606228
SEELOWER STR. / PAUL-ROBESON-STR.,1,2018,15,13.4107554,52.5523838,,2,,,4606152-4606155
SEELOWER STR. / SCHIVELBEINER STR.,2,2018,15,13.4104115,52.550801,,2,,,4606155-8658097
SENEFELDERSTR.,1,2018,15,13.4228598283143,52.5416154869241,0.0,1,554.294568208686,1108.589136417372,8150009
SONNENBURGER STR.,1,2018,15,13.4075596658932,52.5478195042318,0.0,1,349.472371045267,698.944742090534,4631476
SREDZKISTR.,1,2018,15,13.4175507549711,52.5383294899064,0.0,1,775.485172521317,1550.970345042634,4606260
STARGARDER STR.,2,2018,15,13.4199911071595,52.5457446129263,0.0,1,1060.93427587962,2121.86855175924,11114396
STAVANGERSTR.,1,2018,15,13.4104457487143,52.5565075007388,0.3108642395186284,1,602.727781482485,1018.0890495376673,4782311
TRELLEBORGER STR. / WISBYER STR.,4,2018,15,13.4184382,52.5534626,,2,,,4068093-123943333
U-BHF. SCHÖNHAUSER ALLEE / KOPENHAGENER STR. / SCHÖNHAUSER ALLEE,1,2018,15,13.4134058,52.5486856,,2,,,4615362-23985869
UECKERMÜNDER STR.,1,2018,15,13.40128535,52.55282625,0.0,1,248.527228006204,497.054456012408,4606149
WICHERTSTR.,2,2018,15,13.4209942128837,52.5485161558465,1.0,1,2149.00452255192,2149.00452255192,8658090
WISBYER STR.,4,2018,15,13.4223455037042,52.5527584536733,1.0,1,2252.4673588441,2252.4673588441,4068093
ZIONSKIRCHSTR.,1,2018,15,13.404782506218,52.5341221798494,0.3020766014360437,1,1034.74118615145,1756.9112714243693,4606213
BERNAUER STR.,2,2018,15,13.3951764403349,52.5380184369245,0.0977170677706746,1,1520.73336512866,2892.865124955916,4597231
AM FRIEDRICHSHAIN,3,2018,16,13.4303381,52.5289556,0.39078357625279675,1,1724.46068853416,2775.030462095581,4615058
AM FRIEDRICHSHAIN / FRIEDENSTR.,1,2018,16,13.4249454,52.5281652,,2,,,4615058-4615401
BELFORTER STR. / HEINRICH-ROLLER-STR. / PRENZLAUER ALLEE,2,2018,16,13.419899050000001,52.531751424999996,,3,,,4484427-4615001-184429424
CHODOWIECKISTR. / PRENZLAUER ALLEE,1,2018,16,13.423914,52.5384088,,2,,,4484427-4615030
CHRISTBURGER STR.,2,2018,16,13.427013014987,52.5357959604939,0.0,1,601.653401585988,1203.306803171976,4615028
CHRISTBURGER STR. / GREIFSWALDER STR. / PASTEURSTR.,1,2018,16,13.4310695,52.534472750000006,,3,,,4615028-4615034-4615064
CHRISTBURGER STR. / PRENZLAUER ALLEE / SREDZKISTR.,1,2018,16,13.4230406,52.537172049999995,,3,,,4484427-4606260-4615028
DANZIGER STR.,10,2018,16,13.4314959293615,52.5365827257356,0.9788401892826187,1,5917.72743056924,6042.945422877139,4615031
DANZIGER STR. / BÖTZOWSTR.,1,2018,16,13.4373733,52.5342767,,2,,,4615031-4615066
DANZIGER STR. / COTHENIUSSTR.,2,2018,16,13.4463961,52.5277803,,2,,,4615031-8084127
DANZIGER STR. / GREIFSWALDER STR.,5,2018,16,13.43288085,52.5362311,,2,,,4615031-4615034
DANZIGER STR. / HANS-OTTO-STR.,1,2018,16,13.43883145,52.53341785,,2,,,4615031-4615067
DANZIGER STR. / PRENZLAUER ALLEE,9,2018,16,13.4240352,52.5390943,,2,,,4484427-4615031
DIESTERWEGSTR. / FRÖBELSTR.,1,2018,16,13.4279948,52.5400738,,2,,,4615074-161755130
DIESTERWEGSTR. / PRENZLAUER ALLEE / STARGARDER STR.,1,2018,16,13.4264264,52.542973700000005,,3,,,4484427-4615074-11114396
EINSTEINSTR.,1,2018,16,13.4484159600031,52.5389072929537,0.15753886097641012,1,1046.51414810377,1928.1616493195738,4787420
ERICH-WEINERT-STR.,1,2018,16,13.4279058063806,52.5480794389293,0.0,1,2050.47540956867,4100.95081913734,4615321
ERICH-WEINERT-STR. / GREIFSWALDER STR. / THOMAS-MANN-STR.,1,2018,16,13.44142395,52.54337755,,3,,,4615034-4615321-4787423
ERICH-WEINERT-STR. / GUBITZSTR.,1,2018,16,13.434201,52.5458914,,2,,,4615321-4615324
FRÖBELSTR. / PRENZLAUER ALLEE / RAUMERSTR.,2,2018,16,13.4252513,52.5409642,,3,,,4484427-4606273-161755130
GOETHESTR. / OSTSEESTR.,3,2018,16,13.4345035,52.5496172,,2,,,4615358-4631756
GREIFSWALDER STR.,20,2018,16,13.4355731237884,52.538165578096,0.8115911124967027,1,6474.08538332221,7693.860607995306,4615034
GREIFSWALDER STR. / BERNHARD-LICHTENBERG-STR.,1,2018,16,13.4340571,52.5368722,,2,,,4615034-4615216
GREIFSWALDER STR. / DIETRICH-BONHOEFFER-STR.,4,2018,16,13.4322982,52.535352,,2,,,4615034-4615068
GREIFSWALDER STR. / GRELLSTR. / STORKOWER STR.,4,2018,16,13.43876875,52.54128765,,3,,,4615034-4615322-4685621
GREIFSWALDER STR. / HUFELANDSTR. / MARIENBURGER STR.,3,2018,16,13.4295586,52.5329862,,3,,,4615007-4615034-4615063
GREIFSWALDER STR. / KÄTHE-NIEDERKIRCHNER-STR.,1,2018,16,13.4283397,52.5319418,,2,,,4615034-4615062
GREIFSWALDER STR. / LILLI-HENOCH-STR.,4,2018,16,13.4369356,52.5397125,,2,,,4615034-4615078
GREIFSWALDER STR. / MICHELANGELOSTR. / OSTSEESTR.,1,2018,16,13.445278000000002,52.54537725,,3,,,4615034-4615358-4685619
GREIFSWALDER STR. / SCHIERITZSTR.,1,2018,16,13.442675,52.5446086,,2,,,4615034-4615332
GRELLSTR.,3,2018,16,13.4331909065625,52.5434630155899,0.9932341268998551,1,1819.86888962593,1832.1818915920405,4615322
GUBITZSTR. / OSTSEESTR.,1,2018,16,13.43673,52.5487537,,2,,,4615324-4615358
HANNS-EISLER-STR. / HANNS-EISLER-STR.,1,2018,16,13.4489593924654,52.5429557773786,0.0,1,1664.67077637667,3329.34155275334,9709362
HANS-OTTO-STR. / JOHN-SCHEHR-STR.,1,2018,16,13.4404802,52.5347363,,2,,,4615067-4615212
HEINZ-BARTSCH-STR. / CONRAD-BLENKLE-STR.,1,2018,16,13.446347,52.5314081,,2,,,8084121-8084124
HERMANN-BLANKENSTEIN-STR.,2,2018,16,13.4618014169647,52.5242446773549,0.0,1,1490.20862980516,2980.41725961032,8428399
HOHENSCHÖNHAUSER STR. / MAIGLÖCKCHENSTR. / ODERBRUCHSTR. / HERBERT-TSCHÄPE- STR.,2,2018,16,13.463048,52.5323386,,4,,,4687243-4687248-4687257-8115416
HOSEMANNSTR. / OSTSEESTR.,2,2018,16,13.439320500000001,52.5475359,,2,,,4068003-4615358
HOSEMANNSTR. / SCHIERITZSTR.,2,2018,16,13.4381551,52.5463256,,2,,,4068003-4615332
HUFELANDSTR.,1,2018,16,13.4333823872826,52.531270073623,0.0,1,653.126631838754,1306.253263677508,4615063
IMMANUELKIRCHSTR.,1,2018,16,13.423943414013,52.5325860479951,0.0,1,559.87550330199,1119.75100660398,4615006
IMMANUELKIRCHSTR. / KNAACKSTR. / PRENZLAUER ALLEE,1,2018,16,13.420879675,52.5336304,,3,,,4484427-4606259-4615006
JABLONSKISTR. / PRENZLAUER ALLEE,1,2018,16,13.4235652,52.537818,,2,,,4484427-4615029
JABLONSKISTR. / WINSSTR.,1,2018,16,13.4276675,52.5364006,,2,,,4615004-4615029
JOHN-SCHEHR-STR.,2,2018,16,13.4391389040672,52.5353962359035,0.018287153640648472,1,753.40514694533,1493.0326582148155,4615212
KNAACKSTR. / KOLMARER STR.,1,2018,16,13.4196377,52.5341579,,2,,,4606259-4606263
KNIPRODESTR.,4,2018,16,13.4471422767268,52.5357736786524,0.9474743679568681,1,3673.06508296116,3865.995147979253,4631872
KNIPRODESTR. / ALTENESCHER WEG,1,2018,16,13.4542699,52.540235,,2,,,4631872-4687333
KNIPRODESTR. / AM FRIEDRICHSHAIN / HUFELANDSTR. / VIRCHOWSTR.,1,2018,16,13.437176216666666,52.529616016666665,,4,,,4615058-4615063-4615460-4631872
KNIPRODESTR. / CONRAD-BLENKLE-STR.,1,2018,16,13.4437815,52.5336517,,2,,,4631872-8084121
KNIPRODESTR. / DANZIGER STR.,3,2018,16,13.4415842,52.5322408,,2,,,4615031-4631872
KNIPRODESTR. / RUDOLF-SCHWARZ-STR.,1,2018,16,13.4442347120942,52.534118239379254,,2,,,4615220-4631872
KNIPRODESTR. / STEDINGERWEG / HANNS-EISLER-STR.,3,2018,16,13.4526167,52.5391959,,3,,,4631872-4687336-9709362
KNIPRODESTR. / STORKOWER STR.,2,2018,16,13.44954985,52.5372009,,2,,,4631872-4685621
LANDSBERGER ALLEE,9,2018,16,13.5067556968187,52.5350618164269,0.7611985946380139,1,29796.0430042584,36911.379947901485,4615457
LINDENHOEKWEG / SÜLTSTR.,1,2018,16,13.4324251,52.548193,,2,,,4615325-4615328
MANDELSTR. / OSTSEESTR.,2,2018,16,13.443891,52.5459138,,2,,,4615335-4615358
MARIENBURGER STR.,2,2018,16,13.4258985784992,52.5342856838511,0.0,1,573.983675746586,1147.967351493172,4615007
METZER STR. / PRENZLAUER ALLEE,1,2018,16,13.4189884,52.5307018,,2,,,4484427-23121446
METZER STR. / STRAßBURGER STR.,1,2018,16,13.4158568,52.531742,,2,,,4615003-23121446
MICHELANGELOSTR. / HANNS-EISLER-STR.,3,2018,16,13.4534352,52.5421271,,2,,,4685619-9709362
ODERBRUCHSTR. / KARL-LADE-STR. / LANDSBERGER ALLEE,1,2018,16,13.4611299,52.5295053,,3,,,4615457-4687155-4687257
OSTSEESTR.,1,2018,16,13.4373896122643,52.5484928726066,0.915719435660092,1,2672.76284828961,2898.024809490198,4615358
OSTSEESTR. / SÜLTSTR.,2,2018,16,13.43391945,52.54967805,,2,,,4615325-4615358
OTTO-BRAUN-STR.,2,2018,16,13.4201775747673,52.5251683769872,1.0,1,1676.45492649926,1676.45492649926,4790833
OTTO-BRAUN-STR. / AM FRIEDRICHSHAIN / GREIFSWALDER STR. / PRENZLAUER BERG / PLAT,3,2018,16,13.423786333333332,52.528215100000004,,4,,,4614987-4615034-4615058-4790833
OTTO-OSTROWSKI-STR. / ZUR MARKTFLAGGE / THAERSTR.,1,2018,16,13.456516174346799,52.523223381047245,,3,,,24772627-28197508-129207711
PAUL-HEYSE-STR. / CONRAD-BLENKLE-STR.,1,2018,16,13.4472474,52.5305637,,2,,,8084121-8084125
PRENZLAUER ALLEE,8,2018,16,13.4240084102703,52.539048365723,0.9046553315013265,1,6170.45885414494,6758.7792080780955,4484427
PRENZLAUER ALLEE / PRENZLAUER BERG / SAARBRÜCKER STR.,4,2018,16,13.4171762,52.5284555,,3,,,4484427-4606254-4614987
PRENZLAUER ALLEE / RAABESTR.,1,2018,16,13.4203576,52.532407,,2,,,4484427-4615005
PRENZLAUER BERG,1,2018,16,13.4208165533422,52.5286947426135,0.3048643738705495,1,533.458088782422,904.283811342011,4614987
RAUMERSTR.,1,2018,16,13.4201898561053,52.5420868395159,0.0,1,737.972209456488,1475.944418912976,4606273
RICHARD-ERMISCH-STR.,3,2018,16,13.4599453046031,52.5224733209965,0.0,1,459.443224182785,918.88644836557,127621246
SAARBRÜCKER STR.,1,2018,16,13.4147214838024,52.5301944064272,0.0,1,482.073208662834,964.146417325668,4606254
SREDZKISTR.,1,2018,16,13.4175507549711,52.5383294899064,0.0,1,775.485172521317,1550.970345042634,4606260
STEDINGERWEG,1,2018,16,13.4552495461847,52.5376845024589,0.0,1,538.107429727424,1076.214859454848,4687336
STORKOWER STR.,12,2018,16,13.4555968778471,52.5310411981534,0.28387135502809796,1,6376.25077485956,10942.466602260776,4685621
STORKOWER STR. / LANDSBERGER ALLEE,6,2018,16,13.457708,52.52890065,,2,,,4615457-4685621
SYRINGENWEG / SYRINGENWEG,1,2018,16,13.4577218372878,52.5315209990568,0.0,1,550.1527830979,1100.3055661958,29212660
THOMAS-MANN-STR.,1,2018,16,13.4453889858845,52.5426050732928,0.0,1,885.63077347107,1771.26154694214,4787423
VIEHTRIFT / ZUR WAAGE / AM VIEHHOF,1,2018,16,13.457748774999999,52.521664825,,3,,,24772546-26139323-43115509
WINSSTR.,1,2018,16,13.4256856254053,52.534265495119,0.0,1,884.204486053621,1768.408972107242,4615004
OTTO-BRAUN-STR. / BARNIMSTR.,1,2018,16,13.4217874,52.526498,,2,,,4615403-4790833
OTTO-BRAUN-STR. / MENDELSSOHNSTR.,1,2018,16,13.4211237,52.5264106,,2,,,4614989-4790833
ACKERSTR. / ASKANIERRING / FALKENSEER CHAUSSEE,1,2018,21,13.194529551202201,52.54575230707172,,3,,,4978497-5000791-5216394
ALTSTÄDTER RING,1,2018,21,13.2005117324281,52.5377764260446,1.0,1,1332.65722964254,1332.65722964254,4453034
ALTSTÄDTER RING / CARL-SCHURZ-STR. / KLOSTERSTR. / SEEGEFELDER STR. / STABHOLZGA,2,2018,21,13.200330387193466,52.535420389165814,,4,,,4453033-4453034-4804139-5043207
ALTSTÄDTER RING / MORITZSTR.,2,2018,21,13.2006263,52.538649,,2,,,4453034-4804146
ALTSTÄDTER RING / MÜNSINGER PARK / JÜDENSTR.,1,2018,21,13.2003976,52.5366456,,2,,,4453034-5095302
AM HÜLLEPFUHL / FALKENSEER CHAUSSEE,1,2018,21,13.1518372,52.5536928,,2,,,5000791-23382149
AM JULIUSTURM,5,2018,21,13.2180033010254,52.537565271109,0.9419474139708635,1,4431.21325459349,4688.456643269229,4453035
AM JULIUSTURM / AUGUSTAUFER / FALKENSEER PLATZ,2,2018,21,13.204199392437426,52.54011270748887,,3,,,4453035-24969076-37535101
AM JULIUSTURM / CARL-SCHURZ-STR. / HAVELSTR. / HOHER STEINWEG,1,2018,21,13.205619679356252,52.5394644062554,,4,,,4453035-5043207-5105773-25068094
AM JULIUSTURM / JÜDENSTR.,1,2018,21,13.204120249999999,52.5396783,,2,,,4453035-5095302
AM JULIUSTURM / LAGERWEG,1,2018,21,13.2314667,52.5382518,,2,,,4453035-80029238
AM KIESTEICH,2,2018,21,13.1620853295636,52.5468377849891,0.07996954680854877,1,1043.68643087336,2003.9097308595456,4884672
AMEISENWEG,1,2018,21,13.1546917991546,52.5582355968079,0.0,1,622.667863819405,1245.33572763881,5025937
AN DER KAPPE,1,2018,21,13.1795913234316,52.5407063816033,0.0,1,1569.0949488696,3138.1898977392,5000504
AN DER KAPPE / ZEPPELINSTR.,3,2018,21,13.1832305,52.5398161,,2,,,4978502-5000504
ASKANIERRING / FALKENHAGENER STR. / FALKENHAGENER TOR,2,2018,21,13.1959285,52.547170574999996,,3,,,4797951-4978497-5075951
ASKANIERRING / HAVELSCHANZE / NEUENDORFER STR. / STREITSTR. / KGA KLECKERSDORF,1,2018,21,13.207788033333335,52.554059566666666,,4,,,4797965-4978497-18830950-18830952
ASPENWEG / KASTANIENWEG,1,2018,21,13.2081544,52.5712564,,2,,,5011318-22945677
BEERWINKEL / IM SPEKTEFELD,1,2018,21,13.1612777,52.5484379,,2,,,8023538-24028388
BISMARCKSTR. / NEUENDORFER STR.,1,2018,21,13.2056869,52.5416281,,2,,,4797954-4797965
BOCA-RATON-STR.,1,2018,21,13.2209263270163,52.5612612986505,0.0,1,83.7322261568453,167.4644523136906,5134113
BRAMWALDWEG / PIONIERSTR.,1,2018,21,13.1818054,52.5525407,,2,,,23381500-23410100
BRAUEREIHOF,1,2018,21,13.2105447476842,52.5469377643327,0.0,1,594.455135823089,1188.910271646178,5077357
BREITE STR.,1,2018,21,13.2054585204556,52.5369401984347,0.0,1,501.167152119718,1002.334304239436,5095318
BREITE STR. / MAUERSTR.,1,2018,21,13.2030125,52.5353986,,2,,,5095318-23949120
BURSCHEIDER WEG / HASELHORSTER DAMM,1,2018,21,13.238431949999999,52.54475255,,2,,,5021454-19898268
BUSCHHÜTTENER WEG,1,2018,21,13.1836147791217,52.5456143641931,0.0,1,75.5088913665516,151.0177827331032,4999775
CAUTIUSSTR. / SCHÖNWALDER ALLEE,1,2018,21,13.1970085,52.5620298,,2,,,4978510-10742555
CAUTIUSSTR. / STREITSTR.,1,2018,21,13.2083909,52.5619948,,2,,,4978510-18830950
CHAMISSOSTR. / GOLTZSTR.,1,2018,21,13.2109305,52.560314,,2,,,4978668-19852521
DAUMSTR. / RHENANIASTR.,2,2018,21,13.2258006,52.5544524,,2,,,4553267-4581884
ELISABETHSTR. / SCHÖNWALDER STR.,2,2018,21,13.2023362,52.5465516,,2,,,4797958-37535100
ERZGEBIRGSWEG / HAINLEITEWEG,1,2018,21,13.181555,52.5484283,,2,,,23410053-23410057
FALKENHAGENER STR.,1,2018,21,13.2008246627552,52.5458402144901,0.0,1,636.577002343296,1273.154004686592,5075951
FALKENHAGENER STR. / FROBENSTR. / HÜGELSCHANZE,1,2018,21,13.196111467785725,52.547850018814756,,3,,,4797960-5075951-26781939
FALKENHAGENER TOR / HOHENZOLLERNRING / PIONIERSTR.,2,2018,21,13.19178072194205,52.54934375284335,,3,,,4797951-23381500-23409830
FALKENSEER CHAUSSEE,1,2018,21,13.1721408783814,52.5499589110482,0.9358578104992609,1,6342.30822212093,6749.117757976305,5000791
FALKENSEER CHAUSSEE / FRANKENWALDSTR. / MÜLHEIMER STR.,2,2018,21,13.1718012,52.5498837,,3,,,5000168-5000791-8023535
FALKENSEER CHAUSSEE / HOHENZOLLERNRING,2,2018,21,13.1915574,52.5462385,,2,,,5000791-23409830
FALKENSEER CHAUSSEE / SIEGENER STR. / WESTERWALDSTR.,4,2018,21,13.1780611,52.5487105,,3,,,4978504-5000127-5000791
FALKENSEER CHAUSSEE / STADTRANDSTR.,1,2018,21,13.15351735,52.5534248,,2,,,5000791-5025940
FALKENSEER CHAUSSEE / STEIGERWALDSTR.,1,2018,21,13.182959,52.5479311,,2,,,5000791-23410054
FALKENSEER CHAUSSEE / WASSERWERKSTR. / AM KIESTEICH,2,2018,21,13.1654151,52.5512219,,3,,,4884672-5000791-8023536
FALKENSEER CHAUSSEE / ZEPPELINSTR.,1,2018,21,13.1846608,52.54753795,,2,,,4978502-5000791
FALKENSEER DAMM,1,2018,21,13.1985903593095,52.5429282515163,1.0,1,1587.54051664337,1587.54051664337,4797967
FLANKENSCHANZE,3,2018,21,13.1980676185495,52.5426001026645,0.5777413675332203,1,1091.00576510829,1551.692367496289,4797952
FLANKENSCHANZE / GALENSTR. / MORITZSTR.,1,2018,21,13.198432,52.53963745,,3,,,4797952-4804144-4804146
FLANKENSCHANZE / HASENMARK,1,2018,21,13.1976956,52.5406878,,2,,,4797952-4804145
FREIHEIT,3,2018,21,13.2230712124586,52.530687021119,0.08386675110941698,1,2356.24820273846,4514.885523905842,5095383
FREIHEIT / PICHELSWERDERSTR. / AM SCHLANGENGRABEN,1,2018,21,13.2137874,52.5317539,,3,,,4588817-5095383-5363316
FREUDSTR. / GOLDKÄFERWEG,1,2018,21,13.1489916,52.5567259,,2,,,23382139-23382140
FÜRSTENWEG / HOHENZOLLERNRING / RADELANDSTR.,2,2018,21,13.1958059,52.5551874,,3,,,23387215-23409830-179465006
GALENSTR.,3,2018,21,13.1974983283743,52.5387231778674,0.0,1,738.948590866947,1477.897181733894,4804144
GARTENFELDER STR.,1,2018,21,13.2427412766339,52.5436752411999,0.21786881282802065,1,2169.81910320644,3866.9022943457326,4581852
GARTENFELDER STR. / PAULSTERNSTR.,1,2018,21,13.2469803,52.5440841,,2,,,4581852-4581878
GARTENFELDER STR. / SIMONRING,1,2018,21,13.2381765,52.5424625,,2,,,4581852-23389981
GOLDBECKWEG,1,2018,21,13.2299285053192,52.5436574505106,0.0,1,720.767804387272,1441.535608774544,19898272
GOLDBECKWEG / PULVERMÜHLENWEG,1,2018,21,13.2293275,52.5459728,,2,,,19898272-30932593
GOLTZSTR.,1,2018,21,13.2132829286506,52.5618525227602,0.1338383969445139,1,1039.3046302524,1939.5103948548083,19852521
GROßER SPREERING / BOLTONSTR.,1,2018,21,13.2460856,52.5376258,,2,,,4804195-26131451
HAKENFELDER STR.,1,2018,21,13.2018115169858,52.5658164732556,0.12142716231929328,1,1480.87463733726,2781.930869712044,4978670
HAKENFELDER STR. / MERTENSSTR. / NIEDERNEUENDORFER ALLEE / STREITSTR.,1,2018,21,13.209328400000002,52.565372266666664,,4,,,4978666-4978670-18830950-35470766
HAKENFELDER STR. / SCHÖNWALDER ALLEE / STADTPARK SPANDAU,1,2018,21,13.1966406,52.5628133,,2,,,4978670-10742555
HOHENZOLLERNRING,1,2018,21,13.193851713578,52.5533808247375,0.1433158904572803,1,3220.84591314264,5980.093426217551,23409830
HOHENZOLLERNRING / SCHÖNWALDER ALLEE / FEHRBELLINER TOR / KLINKEPLATZ,1,2018,21,13.1986197,52.5553298,,3,,,4797956-10742555-23409830
HOHENZOLLERNRING / STREITSTR. / AM MASELAKEPARK,1,2018,21,13.2076599,52.5556824,,3,,,4978496-18830950-23409830
IM SPEKTEFELD,1,2018,21,13.1576759934985,52.5488663965849,0.0,1,675.087121735598,1350.174243471196,24028388
IM SPEKTEFELD / HINTER DEN GÄRTEN,1,2018,21,13.1536759,52.5492738,,2,,,23382155-24028388
JÜDENSTR.,2,2018,21,13.2024478096136,52.5377363963647,0.4427513607583442,1,426.074989947709,663.504698310972,5095302
JUGENDWEG / QUELLWEG / JUGENDPLATZ,1,2018,21,13.2693523,52.537754,,2,,,4588800-4588803
JUNGFERNHEIDEWEG / MÄCKERITZSTR. / POPITZWEG,1,2018,21,13.2718791,52.5369831,,3,,,4581858-4588805-4588808
KLÄRWERKSTR.,1,2018,21,13.2328074104213,52.5285168796718,0.0,1,219.248153378373,438.496306756746,4588815
KLEINE EISWERDERSTR.,1,2018,21,13.2251766827918,52.5487855502441,0.0,1,293.302446434009,586.604892868018,4553340
KULBEWEG,1,2018,21,13.2116142988973,52.5624871234881,0.0,1,340.192454475908,680.384908951816,22981795
MICHELSTADTER WEG,1,2018,21,13.2068323684621,52.5617788427616,0.0,1,790.664682918103,1581.329365836206,22956597
MÖNCHSTR. / REFORMATIONSPLATZ,1,2018,21,13.205209,52.5378076,,2,,,5105776-24041471
MORITZSTR.,1,2018,21,13.2007188635656,52.5386152346742,0.27572770856352147,1,509.575963220354,878.6477137629106,4804146
MORITZSTR. / MÜNSINGERSTR.,1,2018,21,13.1991879,52.5391523,,2,,,4804146-24033948
MOTARDSTR. / ROHRDAMM / WOHLRABEDAMM,1,2018,21,13.2663889,52.5338743,,3,,,4553257-4553259-86560369
MÜLLERSTR.,1,2018,21,13.2053936931661,52.5446846321987,0.0,1,128.246878345421,256.493756690842,50373272
NAUENER STR. / SEEGEFELDER STR. / ZEPPELINSTR.,1,2018,21,13.182372699999998,52.538395300000005,,3,,,4804139-4978502-23968027
NEUE BERGSTR. / NEUENDORFER STR.,1,2018,21,13.2098149,52.550596,,2,,,4797965-5037124
NEUE BERGSTR. / SCHÖNWALDER STR.,1,2018,21,13.2004927,52.5496322,,2,,,5037124-37535100
NEUENDORFER STR. / FALKENSEER PLATZ,2,2018,21,13.2041596,52.5404199,,2,,,4797965-37535101
NEUENDORFER STR. / SCHÄFERSTR.,1,2018,21,13.2093994,52.5516833,,2,,,4797965-5021374
NIEDERNEUENDORFER ALLEE,2,2018,21,13.210036072782,52.5787053843755,0.055599769826620085,1,5725.62617386745,11132.908850354599,4978666
NIEDERNEUENDORFER ALLEE / WICHERNSTR.,1,2018,21,13.2098124,52.5661024,,2,,,4978666-5011319
NONNENDAMMALLEE,4,2018,21,13.2519860516266,52.5379220382471,1.0,1,5472.40597933469,5472.40597933469,4453037
NONNENDAMMALLEE / ROHRDAMM,1,2018,21,13.2648996,52.5366642,,2,,,4453037-4553257
NONNENDAMMALLEE / WATTSTR.,2,2018,21,13.2666353,52.5366152,,2,,,4453037-24389258
QUELLWEG,1,2018,21,13.2695016087709,52.5379318572931,0.0,1,931.882185632917,1863.764371265834,4588800
RADELANDSTR. / STADTRANDSTR.,1,2018,21,13.1598361,52.5645887,,2,,,5025940-23387215
RAUCHSTR.,2,2018,21,13.2149487254661,52.5607592660491,0.6509913214348838,1,1479.20231605184,1995.4567617075518,4978664
RAUCHSTR. / HUGO-CASSIRER-STR.,1,2018,21,13.2189077,52.5602158,,2,,,4581880-4978664
ROHRDAMM,1,2018,21,13.2637455142582,52.5389952978937,0.0,1,2156.68510881421,4313.37021762842,4553257
ROHRDAMM / SAATWINKLER DAMM,1,2018,21,13.2588803,52.5481365,,2,,,4484020-4553257
ROHRDAMM / STRAßE AM SCHALTWERK,2,2018,21,13.2625433,52.5413175,,2,,,4553257-30215766
SAATWINKLER DAMM,1,2018,21,13.2898237045,52.548264402496,0.4568479626066839,1,8761.9983315019,13521.095576893993,4484020
SEEGEFELDER STR.,4,2018,21,13.1836212490815,52.5382498933773,0.16353072824152906,1,2502.69296424206,4596.118725476665,4804139
SIEMENSDAMM,1,2018,21,13.2823507128323,52.5339167515546,1.0,1,3051.45805926045,3051.45805926045,4453038
SPANDAUER DAMM / WIESENDAMM,1,2018,21,13.2474024,52.5244041,,2,,,4421114-4588812
STRESOWSTR.,1,2018,21,13.2067270918736,52.5338318185925,0.0,1,339.781284690568,679.562569381136,5095381
STRESOWSTR. / STRESOWPLATZ,1,2018,21,13.2070509,52.533379,,2,,,5095381-24035387
WESTERWALDSTR.,1,2018,21,13.1780829438869,52.5511135483139,0.0,1,568.905328332615,1137.81065666523,4978504
ZEPPELINSTR.,1,2018,21,13.1842737897445,52.5453668851344,0.8800034664969074,1,2730.89633923922,3058.594433304212,4978502
AM HAIN / CHARLOTTENBURGER CHAUSSEE,1,2018,22,13.2317605,52.527687,,2,,,14771586-24615396
CHARLOTTENBURGER CHAUSSEE,4,2018,22,13.2306114474877,52.527865271117,1.0,1,4193.37852775211,4193.37852775211,24615396
CHARLOTTENBURGER CHAUSSEE / STENDELWEG,1,2018,22,13.2401468,52.5262152,,2,,,4553959-24615396
AHORNALLEE / ULMENALLEE,1,2018,22,13.2769659,52.5161038,,2,,,4480544-4584913
ALTE ALLEE / ZIKADENWEG,1,2018,22,13.2607715,52.4931271,,2,,,4678323-13220760
BAYERNALLEE / FRANKENALLEE / HEERSTR. / KASTANIENALLEE,1,2018,22,13.268493577594569,52.50921651806971,,4,,,4068033-4480549-4604843-25312105
BOLIVARALLEE,1,2018,22,13.2620243591553,52.5190874224025,0.9568167851891481,1,1024.33286433427,1068.5668504526318,4515874
BREDTSCHNEIDERSTR.,1,2018,22,13.2792680857128,52.5086447475383,0.0,1,329.913434679239,659.826869358478,4609227
CORDESSTR. / EICHKAMPSTR. / WALDSCHULALLEE,1,2018,22,13.2701282,52.497365450000004,,3,,,4422233-5173207-14357390
DICKENSWEG,1,2018,22,13.2347990954531,52.5084600607504,0.0,1,920.647749529607,1841.295499059214,4555279
EBERESCHENALLEE,1,2018,22,13.2684956669604,52.5156731717834,0.05341987533942871,1,1082.55329434982,2107.2767266671844,24837181
EICHENALLEE / LINDENALLEE,1,2018,22,13.2742025,52.5155658,,2,,,4515870-4515881
EICHKAMPSTR. / LÄRCHENWEG,1,2018,22,13.2685681,52.4958799,,2,,,4422233-4678263
EPIPHANIENWEG / KNOBELSDORFFSTR.,1,2018,22,13.2839657,52.5127955,,2,,,4515856-4756192
ESCHENALLEE / LÄNDERALLEE / REICHSSTR.,1,2018,22,13.266230799999999,52.513049949999996,,3,,,4068090-4515876-4604848
ESCHENALLEE / PLATANENALLEE,1,2018,22,13.2669648,52.5142422,,2,,,4515866-4515876
FLATOWALLEE,1,2018,22,13.2411917279654,52.5096390504948,0.9563987741814317,1,962.619986372851,1004.5913977761609,4474844
FÜRSTENBRUNNER WEG,1,2018,22,13.2773701717938,52.5267603498636,0.1403039089604712,1,1778.88577852086,3308.1869287210525,4453040
FÜRSTENBRUNNER WEG / KÖNIGIN-ELISABETH-STR. / SPANDAUER DAMM,4,2018,22,13.280127125,52.518419475,,3,,,4421114-4446509-4453040
FÜRSTENPLATZ,1,2018,22,13.2650233109343,52.5112490302706,0.0,1,114.376082518481,228.752165036962,32913821
GOEBELSTR.,1,2018,22,13.2730126141051,52.5392330991422,0.0,1,911.042158801919,1822.084317603838,4581849
HALENSEESTR.,1,2018,22,13.2816475956768,52.4990071154033,1.0,1,2251.73907253927,2251.73907253927,4389573
HAMMARSKJÖLDPLATZ,1,2018,22,13.2752756514115,52.5070695838088,0.0,1,319.432226356992,638.864452713984,78337952
HECKERDAMM,1,2018,22,13.2944933866949,52.5396507627203,0.0,1,2918.07831808429,5836.15663616858,4068114
HEERSTR.,11,2018,22,13.2099677933885,52.5104084598131,0.549096473723349,1,21714.3461113608,31505.42134376507,4068033
HEERSTR. / KRANZALLEE / FLATOWALLEE,2,2018,22,13.24211875,52.5073879,,3,,,4068033-4474844-5077525
HEERSTR. / PREUßENALLEE,2,2018,22,13.2593295,52.5086552,,2,,,4068033-4604840
HEERSTR. / SOLDAUER ALLEE / TEUFELSSEESTR.,4,2018,22,13.2574258,52.5078021,,3,,,4068033-4616232-4694631
HEERSTR. / TEUFELSSEESTR. / HEERSTRAßENBRÜCKE,2,2018,22,13.25783925,52.50823825,,2,,,4068033-4616232
HEILMANNRING / HOFACKERZEILE,1,2018,22,13.2909121,52.5372822,,2,,,4068083-23752665
HEMPELSTEIG / MURELLENWEG / ROMINTER ALLEE,1,2018,22,13.2445364,52.524117,,3,,,4553960-15564868-22375633
HESSENALLEE / PLATANENALLEE / REICHSSTR.,1,2018,22,13.26360338166645,52.51470401591408,,3,,,4068090-4515866-4604839
HESSENALLEE / PREUßENALLEE / WÜRTTEMBERGALLEE,1,2018,22,13.259648784051375,52.512509183448955,,3,,,4604839-4604840-4604842
JAFFÉSTR. / MESSEDAMM,1,2018,22,13.2721791,52.4988077,,2,,,4067883-4068031
JASMINWEG / WACHOLDERWEG,1,2018,22,13.2458331,52.5225133,,2,,,23147712-25626776
JUNGFERNHEIDEWEG,1,2018,22,13.2730324406961,52.5436805783849,0.0,1,1601.88623213505,3203.7724642701,4588808
KAISERDAMM,5,2018,22,13.2853010849809,52.5101440915463,1.0,1,3144.06568683045,3144.06568683045,4436950
KAISERDAMM / KÖNIGIN-ELISABETH-STR. / MESSEDAMM,2,2018,22,13.281854124999999,52.510037975,,3,,,4068031-4436950-4446509
KAISERDAMM / SOORSTR.,2,2018,22,13.2777464,52.509808,,2,,,4436950-4609226
KASTANIENALLEE,1,2018,22,13.2701521364901,52.5141710942266,0.0,1,1031.98841347496,2063.97682694992,4480549
KIPLINGWEG / KRANZALLEE,1,2018,22,13.232348349999999,52.505365499999996,,2,,,5077525-26142738
KIRSCHENALLEE,1,2018,22,13.2657769852585,52.5173682523159,0.07168734172404835,1,710.498189088235,1370.0626517009841,111861869
KNOBELSDORFFSTR. / A 100 BAB / KNOBELSDORFFBRÜCKE / 100 AS KAISERDAMM AUSF N KNO,1,2018,22,13.2868032,52.5129689,,2,,,4515856-24851759
KNOBELSDORFFSTR. / KÖNIGIN-ELISABETH-STR.,5,2018,22,13.2815352,52.5128351,,2,,,4446509-4515856
KNOBELSDORFFSTR. / PLATANENALLEE / SOORSTR.,1,2018,22,13.2766855,52.5125927,,3,,,4515856-4515866-4609226
KNOBELSDORFFSTR. / ROGNITZSTR. / A 100 BAB / KNOBELSDORFFBRÜCKE / 100 AS KAISERD,1,2018,22,13.285209676162925,52.51221488643948,,3,,,4515856-5174233-24851759
KÖNIGIN-ELISABETH-STR.,1,2018,22,13.2810937563999,52.5142311720668,1.0,1,1885.42039157702,1885.42039157702,4446509
KURT-SCHUMACHER-DAMM / FGT CHARLBG/KURT-SCHUMACHER-DAMM,1,2018,22,13.293985251796656,52.53719090115091,1.0,1,1148.76717728348,1148.76717728348,4484026
KURT-SCHUMACHER-DAMM / HECKERDAMM / A 111 BAB AUTOBAHNZUBRINGER HAMBURG / WELTLI,1,2018,22,13.2953739,52.5396189,,2,,,4068114-4484026
LERSCHPFAD / SPANDAUER DAMM / A 100 BAB / SPANDAUER-DAMM-BRÜCKE / 100 AS SPANDAU,1,2018,22,13.2829001,52.5184999,,2,,,4421114-4616166
LETTERHAUSWEG / NIKOLAUS-GROß-WEG / SIEMENSDAMM / A 100 BAB / 100 AD CHARLOTTENB,1,2018,22,13.2824049,52.5338376,,3,,,4068159-4453038-4581857
LINDENALLEE / PLATANENALLEE,1,2018,22,13.2730634,52.513181,,2,,,4515866-4515881
MACHANDELWEG,1,2018,22,13.2496851707969,52.5220879200269,0.0,1,1232.79886496934,2465.59772993868,23147709
MARATHONALLEE,1,2018,22,13.2592109782604,52.5149238828961,0.0,1,517.189822523663,1034.379645047326,4498133
MASURENALLEE,1,2018,22,13.2768832661398,52.5074808681955,1.0,1,1283.89918771345,1283.89918771345,4068095
MASURENALLEE / MESSEDAMM / NEUE KANTSTR.,2,2018,22,13.280241925,52.506416725,,3,,,4068031-4068095-4396015
MASURENALLEE / SOORSTR.,2,2018,22,13.2783574,52.5069439,,2,,,4068095-4609226
MAX-DOHRN-STR. / TEGELER WEG,1,2018,22,13.2960009,52.5304282,,2,,,4446635-4446677
MEININGENALLEE,1,2018,22,13.2586424614044,52.5200155102125,0.0,1,378.145154529255,756.29030905851,4579698
MESSEDAMM,4,2018,22,13.279239430544,52.5041576215007,0.6608966974927428,1,2489.75625188408,3334.040819336062,4068031
OLDENBURGALLEE,1,2018,22,13.2575412500846,52.5140681407527,0.27965714496879107,1,801.278966412593,1378.4745447546966,4604845
OLYMPISCHE STR. / PREUßENALLEE / REICHSSTR.,1,2018,22,13.2601167373387,52.51622595242463,,3,,,4067882-4068090-4604840
OLYMPISCHE STR. / ROMINTER ALLEE / TRAKEHNER ALLEE / OLYMPISCHER PLATZ,3,2018,22,13.24942515,52.5155067,,4,,,4067882-4498121-4581760-15564868
PREUßENALLEE,1,2018,22,13.2594020825417,52.5124508911602,0.9287745838273855,1,1769.76922492383,1895.8217744985152,4604840
RATZEBURGER ALLEE,1,2018,22,13.2625799995028,52.5162038329718,0.0,1,112.955910081479,225.911820162958,24837180
REICHSSTR.,5,2018,22,13.2607449055657,52.5164170142947,0.9394798848936905,1,4281.34035999631,4540.447571392576,4068090
REICHSSTR. / BRIXPLATZ,1,2018,22,13.256560799999999,52.519286050000005,,2,,,4068090-4579703
REICHSSTR. / SPANDAUER DAMM,1,2018,22,13.2493456,52.52391875,,2,,,4068090-4421114
REICHSSTR. / STEUBENPLATZ,1,2018,22,13.260523500000001,52.51642,,2,,,4068090-4515869
RUHWALDWEG / SPANDAUER DAMM,1,2018,22,13.248308,52.5241728,,2,,,4421114-23147598
SIEMENSDAMM / JAKOB-KAISER-PLATZ,1,2018,22,13.2931993,52.53456,,2,,,4453038-58535206
STALLUPÖNER ALLEE,1,2018,22,13.2331694287161,52.504527630739,0.0,1,657.801012600999,1315.602025201998,5095064
TEUFELSSEESTR.,1,2018,22,13.25623176595,52.5069079016538,0.20654343962011823,1,577.405353758932,1035.5514196974232,4616232
THEODOR-HEUSS-PLATZ,1,2018,22,13.2726874052512,52.5098244133371,0.40272554378021796,1,1022.8497668773,1633.7718051834702,4405234
WALDSCHULALLEE,1,2018,22,13.2620316051445,52.5011125367579,0.0,1,1417.50682328018,2835.01364656036,14357390
WÜRTTEMBERGALLEE / FÜRSTENPLATZ,1,2018,22,13.2643998,52.5109035,,2,,,4604842-32913821
ZIKADENWEG,1,2018,22,13.264259242525,52.4957758619679,1.0,1,770.501699496231,770.501699496231,13220760
AM BAHNHOF GRUNEWALD,1,2018,22,13.2633702978814,52.4878552886241,0.0,1,185.01489531659,370.02979063318,4685986
AM POSTFENN,1,2018,22,13.2204470426857,52.5003733544519,0.0,1,1791.23427833954,3582.46855667908,4425425
BERKAER STR. / HUBERTUSALLEE / HUBERTUSBADER STR. / TEPLITZER STR.,1,2018,22,13.281135800000001,52.48213543333333,,4,,,4370509-4396636-4486591-4570569
BISMARCKALLEE / KOENIGSALLEE,1,2018,22,13.2688064,52.4851001,,2,,,4403708-4437189
BORNSTEDTER STR. / KRONPRINZENDAMM / TRABENER STEG,1,2018,22,13.283573306740575,52.49772905337603,,3,,,4389417-4389418-4389576
DELBRÜCKSTR.,1,2018,22,13.2797139381614,52.4850627240664,0.0,1,970.908002764503,1941.816005529006,4745685
EICHKAMPSTR. / KÖNIGSWEG / AUERBACHTUNNEL,3,2018,22,13.2563893,52.4862349,,2,,,4420987-4422233
EICHKAMPSTR. / SCHMETTERLINGSPLATZ,1,2018,22,13.2602209,52.4892467,,2,,,4422233-14370305
FONTANESTR. / HAGENSTR. / KOENIGSALLEE,1,2018,22,13.2657924,52.4833764,,3,,,4403708-4434408-4623436
FRANZENSBADER STR. / HUBERTUSALLEE,5,2018,22,13.284217550000001,52.4854021,,2,,,4368310-4396636
HAGENSTR.,1,2018,22,13.2726652435455,52.479430236689,0.0,1,1240.09568475803,2480.19136951606,4434408
HAGENSTR. / HUBERTUSBADER STR. / WILDPFAD,1,2018,22,13.2754926,52.4784316,,3,,,4434408-4570569-20207501
HALENSEESTR.,2,2018,22,13.2816475956768,52.4990071154033,1.0,1,2251.73907253927,2251.73907253927,4389573
HAVELCHAUSSEE,5,2018,22,13.200787,52.4857838,0.0,1,10766.6667970185,21533.333594037,4422232
HOHENZOLLERNDAMM / KRONBERGER STR.,2,2018,22,13.2789333,52.4754855,,2,,,4389171-4733959
HOHENZOLLERNDAMM / RHEINBABENALLEE / TEPLITZER STR.,5,2018,22,13.2808761,52.4768137,,3,,,4389171-4486591-4486595
HUBERTUSALLEE / KOENIGSALLEE,1,2018,22,13.285118,52.493952,,2,,,4396636-4403708
KOENIGSALLEE,1,2018,22,13.2653985554799,52.4832515841778,0.0,1,4087.37129611479,8174.74259222958,4403708
KOENIGSALLEE / OBERHAARDTER WEG,1,2018,22,13.263482,52.4826343,,2,,,4403708-52378964
KÖNIGSWEG,1,2018,22,13.2463589081177,52.477832697432,0.0,1,2305.96855026531,4611.93710053062,4420987
MENZELSTR. / TAUBERTSTR.,1,2018,22,13.2719201,52.4818596,,2,,,20209202-20209304
TAUBERTSTR.,1,2018,22,13.270415154878,52.483228534836,0.0,1,657.794369324289,1315.588738648578,20209202
ADAMSTR. / JÄGERSTR.,1,2018,23,13.1960775,52.5210298,,2,,,4609187-4609202
ALT-GATOW,1,2018,23,13.1828044782574,52.485851145271,0.0,1,983.326311423063,1966.652622846126,24033646
ALT-GATOW / PLIEVIERSTR.,1,2018,23,13.1826502,52.4861247,,2,,,24004493-24033646
ALTONAER STR.,1,2018,23,13.1881334343123,52.5325022290412,0.0,1,1238.10820577563,2476.21641155126,9932086
ALT-PICHELSDORF / HEERSTR. / MAHNKOPFWEG,1,2018,23,13.199985025,52.5124036,,3,,,4068033-4871590-23597085
AM HEIDEBERG / UNGEWITTERWEG,1,2018,23,13.1455742,52.5434989,,2,,,14354961-14362766
AM KRUG / AM LANGEN WEG,1,2018,23,13.1488101,52.5414726,,2,,,5002023-14362389
AM LANDSCHAFTSPARK GATOW,1,2018,23,13.1286647431849,52.4736435863773,0.0,1,1095.95374016365,2191.9074803273,4898661
BARMBEKER WEG / BRUNSBÜTTELER DAMM / HABERLANDWEG,2,2018,23,13.15450765,52.532972900000004,,3,,,4804140-23398382-24029407
BEERWINKEL / AM KIESTEICH,1,2018,23,13.1616486,52.5460431,,2,,,4884672-8023538
BERGSTR. / COSMARWEG,1,2018,23,13.1440887,52.5277829,,2,,,4999738-23411722
BLAKENHEIDEWEG / GATOWER STR. / STRAßE 270,1,2018,23,13.175627725,52.51963035,,3,,,4449164-5000142-24613075
BREITEHORNWEG,1,2018,23,13.1760837779435,52.4674157673893,0.0,1,2221.19473659274,4442.38947318548,24534606
BRUNSBÜTTELER DAMM,2,2018,23,13.1611089343484,52.5332772571342,0.7202850231677311,1,9162.74121956004,11725.69716750935,4804140
BRUNSBÜTTELER DAMM / AM BAHNHOF SPANDAU,1,2018,23,13.194538,52.5337464,,2,,,4804140-9932925
BRUNSBÜTTELER DAMM / EGELPFUHLSTR.,1,2018,23,13.1693897,52.5334748,,2,,,4804140-10149019
BRUNSBÜTTELER DAMM / ELSFLETHER WEG,1,2018,23,13.1938509,52.533759,,2,,,4804140-9932079
BRUNSBÜTTELER DAMM / HARBURGER WEG,1,2018,23,13.1627577,52.5333421,,2,,,4804140-8023386
BRUNSBÜTTELER DAMM / KLOSTERSTR. / RUHLEBENER STR.,3,2018,23,13.198503500000001,52.532915275,,3,,,4453033-4497945-4804140
BRUNSBÜTTELER DAMM / NAUENER STR.,2,2018,23,13.1814749,52.5340519,,2,,,4804140-23968027
BRUNSBÜTTELER DAMM / PÄWESINER WEG,1,2018,23,13.1792207,52.5338498,,2,,,4804140-9933148
BRUNSBÜTTELER DAMM / PRISDORFER STR.,1,2018,23,13.1650762,52.5334337,,2,,,4804140-8023379
CHARLES-LINDBERGH-STR.,1,2018,23,13.126026832965,52.4713053426569,0.0,1,960.376718003936,1920.753436007872,4898654
FÖLDERICHSTR.,1,2018,23,13.1940076375141,52.5215791503304,0.0,1,787.161659293078,1574.323318586156,4609201
GATOWER STR.,1,2018,23,13.1798995903359,52.505833904906,0.3520096983535979,1,4463.75456251243,7356.2242279503635,4449164
GATOWER STR. / HEERSTR.,2,2018,23,13.1847721,52.5153674,,2,,,4068033-4449164
GÖTELSTR.,1,2018,23,13.2032636197967,52.5206412139743,0.3188661568779992,1,1116.88878236979,1877.6395310451771,25113713
GRÜNHOFER WEG,1,2018,23,13.1881424302961,52.5322800974957,0.0,1,459.222078172649,918.444156345298,9932087
HEERSTR.,3,2018,23,13.2099677933885,52.5104084598131,0.549096473723349,1,21714.3461113608,31505.42134376507,4068033
HEERSTR. / JACZOSTR.,1,2018,23,13.1910147,52.5140504,,2,,,4068033-25538884
HEERSTR. / MAGISTRATSWEG / SEMMELLÄNDERWEG,2,2018,23,13.1624804,52.5201226,,3,,,4068033-4999747-23969531
HEERSTR. / WILHELMSTR.,1,2018,23,13.1790413,52.5166114,,2,,,4068033-4483961
HEIDEREUTERSTR. / RUHLEBENER STR. / KGA RUHLEBENER STR.,1,2018,23,13.2073298,52.5287613,,2,,,4497945-4588819
HOTTENGRUNDWEG / SELBITZER STR.,1,2018,23,13.1218548,52.4515141,,2,,,4895109-4900137
IMCHENALLEE,1,2018,23,13.1461576127534,52.4494808434729,0.0,1,1941.77138103984,3883.54276207968,25094709
JORDANSTR.,1,2018,23,13.1951737327215,52.518111408919,0.0,1,359.576607406015,719.15321481203,4609199
KLADOWER DAMM,2,2018,23,13.1640840534028,52.4661742693013,0.019265326724436444,1,4413.28523167073,8741.547081425193,4895108
KLOSTERBUSCHWEG,2,2018,23,13.1573188043113,52.5403603494678,0.24239460237437768,1,781.257512345273,1373.142420633618,4884674
KLOSTERSTR.,1,2018,23,13.1975477122057,52.5319059585632,1.0,1,1365.96959400429,1365.96959400429,4453033
KLOSTERSTR. / SEDANSTR.,1,2018,23,13.1974081,52.5317266,,2,,,4453033-18830956
KRAMPNITZER WEG,1,2018,23,13.1057102076631,52.4541689160848,0.0,1,4511.78089853426,9023.56179706852,4898027
KROWELSTR.,2,2018,23,13.1993116689894,52.5249614116357,0.0,1,619.345869466119,1238.691738932238,24026983
LEUTHINGERWEG / SEEGEFELDER WEG / STRAßE 396,1,2018,23,13.16004865,52.54261865,,3,,,5000142-5000155-5000156
MAGISTRATSWEG,1,2018,23,13.1600242238611,52.5279378715105,0.33636304225299984,1,2319.35603123321,3858.5664117329743,4999747
MAGISTRATSWEG / NEUE STR. / OLDESLOER WEG,1,2018,23,13.1573581,52.5344451,,3,,,4999747-8023381-30054300
MALSCHWEG / WILHELMSTR.,2,2018,23,13.1706522,52.5101413,,2,,,4483961-23964735
MEYDENBAUERWEG / SANDSTR.,1,2018,23,13.1685624,52.5172351,,2,,,4999754-23436566
NAUENER STR. / STAAKENER STR.,1,2018,23,13.1820575,52.5362642,,2,,,23968027-24032672
NENNHAUSER DAMM,1,2018,23,13.1365502,52.5298328,0.0,1,2799.69553626314,5599.39107252628,8048607
OBSTALLEE,2,2018,23,13.1664109525559,52.5212353494061,0.3208014536854052,1,726.643669422972,1220.1789933837576,4999742
PÄWESINER WEG,1,2018,23,13.1797037242449,52.5297957706449,0.0,1,873.143612259631,1746.287224519262,9933148
PFÄLZISCHE STR. / WILHELMSTR.,1,2018,23,13.1772652,52.5155445,,2,,,4483960-4483961
PICHELSDORFER STR.,2,2018,23,13.1978356955311,52.5208998409428,0.1527013459450306,1,1833.06156775378,3386.21216691145,4579715
PICHELSDORFER STR. / SPANDAUER BURGWALL,1,2018,23,13.1958796,52.5273081,,2,,,4579715-5021653
PICHELSDORFER STR. / WEIßENBURGER STR.,1,2018,23,13.1976948,52.52289805,,2,,,4579715-4609211
PICHELSDORFER STR. / WILHELMSTR.,1,2018,23,13.19528155,52.52810495,,2,,,4483961-4579715
PICHELSWERDERSTR. / RUHLEBENER STR. / SCHULENBURGSTR.,3,2018,23,13.211533375,52.527292725,,3,,,4497945-4588817-4588818
PILLNITZER WEG / HEERSTR.,1,2018,23,13.1557198,52.5215523,,2,,,4068033-27484079
POTSDAMER CHAUSSEE,1,2018,23,13.1432556085122,52.491244879929,0.0,1,5205.88449021222,10411.76898042444,23133780
POTSDAMER CHAUSSEE / AM LANDSCHAFTSPARK GATOW,1,2018,23,13.1262297,52.4785614,,2,,,4898661-23133780
RÄCKNITZER STEIG,1,2018,23,13.1703449036857,52.522646056217,0.0,1,172.762071781497,345.524143562994,23411693
REX-WAITE-STR. / AM LANDSCHAFTSPARK GATOW,1,2018,23,13.1279464,52.4746832,,2,,,4694931-4898661
REX-WAITE-STR. / CHARLES-LINDBERGH-STR.,1,2018,23,13.1242003,52.4737122,,2,,,4694931-4898654
RITTERFELDDAMM,1,2018,23,13.1293749579119,52.4650975330875,0.0,1,3806.29591480587,7612.59182961174,4449163
RITTERFELDDAMM / EICHELMATENWEG,1,2018,23,13.1433567,52.4546501,,2,,,4449163-25029486
RITTERFELDDAMM / SCHWABINGER WEG,1,2018,23,13.1381288,52.4582375,,2,,,4449163-25514318
SAKROWER LANDSTR.,2,2018,23,13.130613231341,52.4497746372464,0.05775827904038848,1,2209.96811271675,4292.292270508845,23045306
SCHMIDT-KNOBELSDORF-STR. / SEEBURGER STR. / SEEBURGER WEG / ULRIKENSTR. / LUTONE,1,2018,23,13.17760215,52.52536303333333,,4,,,4871549-4999770-4999774-9932084
SCHMIDT-KNOBELSDORF-STR. / WILHELMSTR. / MELANCHTHONPLATZ,1,2018,23,13.18889505,52.521654825,,3,,,4483961-4609188-4871549
SEDANSTR.,1,2018,23,13.1982810035504,52.5314720031311,0.0,1,130.771995993643,261.543991987286,18830956
SEEBURGER STR.,1,2018,23,13.1862128668995,52.5272987984017,0.17933566117442626,1,1459.65808316604,2657.5474188989024,9932084
SEEGEFELDER WEG / KLOSTERBUSCHWEG / AM KIESTEICH,1,2018,23,13.157854075,52.543075,,3,,,4884672-4884674-5000155
SIEMENSWERDERWEG,1,2018,23,13.2069736008174,52.5078463597054,0.0,1,1600.44104851275,3200.8820970255,25115162
SÜDEKUMZEILE,2,2018,23,13.1525758976734,52.5305573224202,0.0,1,842.00882329511,1684.01764659022,24029384
UFERPROMENADE,1,2018,23,13.1176739860168,52.4682963565627,0.0,1,1331.42401170045,2662.8480234009,24246844
VERLÄNGERTE UFERPROMENADE,1,2018,23,13.1153708005828,52.4578565329477,0.0,1,982.550747245666,1965.101494491332,4898689
